<?xml version="1.0" encoding="UTF-8"?>
<kml xmlns="http://earth.google.com/kml/2.1">
<Document>
	<name><![CDATA[Category:IUCN Category II]]></name>
	<open>1</open>
		<Placemark>
			<name><![CDATA[Abercrombie River National Park]]></name>
			<Point>
				<coordinates>149.7075,-34.0938888888889,0</coordinates>
			</Point>
			<Snippet></Snippet>
			<description><![CDATA[<br>Source: Wikipedia article <a href="http://en.wikipedia.org/wiki/Abercrombie_River_National_Park">Abercrombie River National Park</a>]]></description>
		</Placemark>
		<Placemark>
			<name><![CDATA[Aberdare National Park]]></name>
			<Point>
				<coordinates>36.6991666666667,-0.38,0</coordinates>
			</Point>
			<Snippet></Snippet>
			<description><![CDATA[<br>Source: Wikipedia article <a href="http://en.wikipedia.org/wiki/Aberdare_National_Park">Aberdare National Park</a>]]></description>
		</Placemark>
		<Placemark>
			<name><![CDATA[Abijatta-Shalla National Park]]></name>
			<Point>
				<coordinates>38.5,7.5,0</coordinates>
			</Point>
			<Snippet></Snippet>
			<description><![CDATA[<br>Source: Wikipedia article <a href="http://en.wikipedia.org/wiki/Abijatta-Shalla_National_Park">Abijatta-Shalla National Park</a>]]></description>
		</Placemark>
		<Placemark>
			<name><![CDATA[Abisko National Park]]></name>
			<Point>
				<coordinates>18.6833333333333,68.3166666666667,0</coordinates>
			</Point>
			<Snippet></Snippet>
			<description><![CDATA[<br>Source: Wikipedia article <a href="http://en.wikipedia.org/wiki/Abisko_National_Park">Abisko National Park</a>]]></description>
		</Placemark>
		<Placemark>
			<name><![CDATA[Absheron National Park]]></name>
			<Point>
				<coordinates>50.3594444444444,40.2836111111111,0</coordinates>
			</Point>
			<Snippet></Snippet>
			<description><![CDATA[<br>Source: Wikipedia article <a href="http://en.wikipedia.org/wiki/Absheron_National_Park">Absheron National Park</a>]]></description>
		</Placemark>
		<Placemark>
			<name><![CDATA[Acadia National Park]]></name>
			<Point>
				<coordinates>-68.2166666666667,44.35,0</coordinates>
			</Point>
			<Snippet></Snippet>
			<description><![CDATA[<br>Source: Wikipedia article <a href="http://en.wikipedia.org/wiki/Acadia_National_Park">Acadia National Park</a>]]></description>
		</Placemark>
		<Placemark>
			<name><![CDATA[Addo Elephant National Park]]></name>
			<Point>
				<coordinates>25.7458333333333,-33.4461111111111,0</coordinates>
			</Point>
			<Snippet></Snippet>
			<description><![CDATA[<br>Source: Wikipedia article <a href="http://en.wikipedia.org/wiki/Addo_Elephant_National_Park">Addo Elephant National Park</a>]]></description>
		</Placemark>
		<Placemark>
			<name><![CDATA[Ag-Gel National Park]]></name>
			<Point>
				<coordinates>47.65,40.0091666666667,0</coordinates>
			</Point>
			<Snippet></Snippet>
			<description><![CDATA[<br>Source: Wikipedia article <a href="http://en.wikipedia.org/wiki/Ag-Gel_National_Park">Ag-Gel National Park</a>]]></description>
		</Placemark>
		<Placemark>
			<name><![CDATA[Aguaragüe National Park and Integrated Management Natural Area]]></name>
			<Point>
				<coordinates>-63.6,-21.5,0</coordinates>
			</Point>
			<Snippet></Snippet>
			<description><![CDATA[<br>Source: Wikipedia article <a href="http://en.wikipedia.org/wiki/Aguaragüe_National_Park_and_Integrated_Management_Natural_Area">Aguaragüe National Park and Integrated Management Natural Area</a>]]></description>
		</Placemark>
		<Placemark>
			<name><![CDATA[Agulhas National Park]]></name>
			<Point>
				<coordinates>20,-34.8333333333333,0</coordinates>
			</Point>
			<Snippet></Snippet>
			<description><![CDATA[<br>Source: Wikipedia article <a href="http://en.wikipedia.org/wiki/Agulhas_National_Park">Agulhas National Park</a>]]></description>
		</Placemark>
		<Placemark>
			<name><![CDATA[Ai-Ais Hot Springs]]></name>
			<Point>
				<coordinates>17.4833333333333,-27.9286111111111,0</coordinates>
			</Point>
			<Snippet></Snippet>
			<description><![CDATA[<br>Source: Wikipedia article <a href="http://en.wikipedia.org/wiki/Ai-Ais_Hot_Springs">Ai-Ais Hot Springs</a>]]></description>
		</Placemark>
		<Placemark>
			<name><![CDATA[Aiguebelle National Park]]></name>
			<Point>
				<coordinates>-78.74897,48.51044,0</coordinates>
			</Point>
			<Snippet></Snippet>
			<description><![CDATA[<br>Source: Wikipedia article <a href="http://en.wikipedia.org/wiki/Aiguebelle_National_Park">Aiguebelle National Park</a>]]></description>
		</Placemark>
		<Placemark>
			<name><![CDATA[Aigüestortes i Estany de Sant Maurici National Park]]></name>
			<Point>
				<coordinates>0.974444444444444,42.5869444444444,0</coordinates>
			</Point>
			<Snippet></Snippet>
			<description><![CDATA[<br>Source: Wikipedia article <a href="http://en.wikipedia.org/wiki/Aigüestortes_i_Estany_de_Sant_Maurici_National_Park">Aigüestortes i Estany de Sant Maurici National Park</a>]]></description>
		</Placemark>
		<Placemark>
			<name><![CDATA[Akagera National Park]]></name>
			<Point>
				<coordinates>30.7833333333333,-1.63333333333333,0</coordinates>
			</Point>
			<Snippet></Snippet>
			<description><![CDATA[<br>Source: Wikipedia article <a href="http://en.wikipedia.org/wiki/Akagera_National_Park">Akagera National Park</a>]]></description>
		</Placemark>
		<Placemark>
			<name><![CDATA[Akanda National Park]]></name>
			<Point>
				<coordinates>9.55,0.616666666666667,0</coordinates>
			</Point>
			<Snippet></Snippet>
			<description><![CDATA[<br>Source: Wikipedia article <a href="http://en.wikipedia.org/wiki/Akanda_National_Park">Akanda National Park</a>]]></description>
		</Placemark>
		<Placemark>
			<name><![CDATA[Aketajawe-Lolobata National Park]]></name>
			<Point>
				<coordinates>128.266666666667,1.15,0</coordinates>
			</Point>
			<Snippet></Snippet>
			<description><![CDATA[<br>Source: Wikipedia article <a href="http://en.wikipedia.org/wiki/Aketajawe-Lolobata_National_Park">Aketajawe-Lolobata National Park</a>]]></description>
		</Placemark>
		<Placemark>
			<name><![CDATA[Al Hoceima National Park]]></name>
			<Point>
				<coordinates>-3.93,35.24,0</coordinates>
			</Point>
			<Snippet></Snippet>
			<description><![CDATA[<br>Source: Wikipedia article <a href="http://en.wikipedia.org/wiki/Al_Hoceima_National_Park">Al Hoceima National Park</a>]]></description>
		</Placemark>
		<Placemark>
			<name><![CDATA[Ala Archa National Park]]></name>
			<Point>
				<coordinates>74.46534558,42.53304826,0</coordinates>
			</Point>
			<Snippet></Snippet>
			<description><![CDATA[<br>Source: Wikipedia article <a href="http://en.wikipedia.org/wiki/Ala_Archa_National_Park">Ala Archa National Park</a>]]></description>
		</Placemark>
		<Placemark>
			<name><![CDATA[Alas Purwo National Park]]></name>
			<Point>
				<coordinates>114.466666666667,-8.68333333333333,0</coordinates>
			</Point>
			<Snippet></Snippet>
			<description><![CDATA[<br>Source: Wikipedia article <a href="http://en.wikipedia.org/wiki/Alas_Purwo_National_Park">Alas Purwo National Park</a>]]></description>
		</Placemark>
		<Placemark>
			<name><![CDATA[Alaungdaw Kathapa National Park]]></name>
			<Point>
				<coordinates>95.5333333333333,23.6,0</coordinates>
			</Point>
			<Snippet></Snippet>
			<description><![CDATA[<br>Source: Wikipedia article <a href="http://en.wikipedia.org/wiki/Alaungdaw_Kathapa_National_Park">Alaungdaw Kathapa National Park</a>]]></description>
		</Placemark>
		<Placemark>
			<name><![CDATA[Alberto de Agostini National Park]]></name>
			<Point>
				<coordinates>-70.43967,-54.74906,0</coordinates>
			</Point>
			<Snippet></Snippet>
			<description><![CDATA[<br>Source: Wikipedia article <a href="http://en.wikipedia.org/wiki/Alberto_de_Agostini_National_Park">Alberto de Agostini National Park</a>]]></description>
		</Placemark>
		<Placemark>
			<name><![CDATA[Alerce Andino National Park]]></name>
			<Point>
				<coordinates>-72.54414,-41.57795,0</coordinates>
			</Point>
			<Snippet></Snippet>
			<description><![CDATA[<br>Source: Wikipedia article <a href="http://en.wikipedia.org/wiki/Alerce_Andino_National_Park">Alerce Andino National Park</a>]]></description>
		</Placemark>
		<Placemark>
			<name><![CDATA[Alerce Costero National Park]]></name>
			<Point>
				<coordinates>-73.4666666666667,-40.1833333333333,0</coordinates>
			</Point>
			<Snippet></Snippet>
			<description><![CDATA[<br>Source: Wikipedia article <a href="http://en.wikipedia.org/wiki/Alerce_Costero_National_Park">Alerce Costero National Park</a>]]></description>
		</Placemark>
		<Placemark>
			<name><![CDATA[Alexander Morrison National Park]]></name>
			<Point>
				<coordinates>115.486111111111,-30.0838888888889,0</coordinates>
			</Point>
			<Snippet></Snippet>
			<description><![CDATA[<br>Source: Wikipedia article <a href="http://en.wikipedia.org/wiki/Alexander_Morrison_National_Park">Alexander Morrison National Park</a>]]></description>
		</Placemark>
		<Placemark>
			<name><![CDATA[Alfred National Park]]></name>
			<Point>
				<coordinates>149.360277777778,-37.5713888888889,0</coordinates>
			</Point>
			<Snippet></Snippet>
			<description><![CDATA[<br>Source: Wikipedia article <a href="http://en.wikipedia.org/wiki/Alfred_National_Park">Alfred National Park</a>]]></description>
		</Placemark>
		<Placemark>
			<name><![CDATA[Alonnisos Marine Park]]></name>
			<Point>
				<coordinates>24.147606,39.3071,0</coordinates>
			</Point>
			<Snippet></Snippet>
			<description><![CDATA[<br>Source: Wikipedia article <a href="http://en.wikipedia.org/wiki/Alonnisos_Marine_Park">Alonnisos Marine Park</a>]]></description>
		</Placemark>
		<Placemark>
			<name><![CDATA[Alpine National Park]]></name>
			<Point>
				<coordinates>146.756666666667,-37.3375,0</coordinates>
			</Point>
			<Snippet></Snippet>
			<description><![CDATA[<br>Source: Wikipedia article <a href="http://en.wikipedia.org/wiki/Alpine_National_Park">Alpine National Park</a>]]></description>
		</Placemark>
		<Placemark>
			<name><![CDATA[Alta Murgia National Park]]></name>
			<Point>
				<coordinates>16.37,40.99,0</coordinates>
			</Point>
			<Snippet></Snippet>
			<description><![CDATA[<br>Source: Wikipedia article <a href="http://en.wikipedia.org/wiki/Alta_Murgia_National_Park">Alta Murgia National Park</a>]]></description>
		</Placemark>
		<Placemark>
			<name><![CDATA[Altai Tavan Bogd National Park]]></name>
			<Point>
				<coordinates>88.6166666666667,48.55,0</coordinates>
			</Point>
			<Snippet></Snippet>
			<description><![CDATA[<br>Source: Wikipedia article <a href="http://en.wikipedia.org/wiki/Altai_Tavan_Bogd_National_Park">Altai Tavan Bogd National Park</a>]]></description>
		</Placemark>
		<Placemark>
			<name><![CDATA[Alto Purús National Park]]></name>
			<Point>
				<coordinates>-71.64,-10.82,0</coordinates>
			</Point>
			<Snippet></Snippet>
			<description><![CDATA[<br>Source: Wikipedia article <a href="http://en.wikipedia.org/wiki/Alto_Purús_National_Park">Alto Purús National Park</a>]]></description>
		</Placemark>
		<Placemark>
			<name><![CDATA[Alto Ribeira State and Tourist Park]]></name>
			<Point>
				<coordinates>-48.6583333333333,-24.475,0</coordinates>
			</Point>
			<Snippet></Snippet>
			<description><![CDATA[<br>Source: Wikipedia article <a href="http://en.wikipedia.org/wiki/Alto_Ribeira_State_and_Tourist_Park">Alto Ribeira State and Tourist Park</a>]]></description>
		</Placemark>
		<Placemark>
			<name><![CDATA[Alton National Park]]></name>
			<Point>
				<coordinates>149.313333333333,-27.9897222222222,0</coordinates>
			</Point>
			<Snippet></Snippet>
			<description><![CDATA[<br>Source: Wikipedia article <a href="http://en.wikipedia.org/wiki/Alton_National_Park">Alton National Park</a>]]></description>
		</Placemark>
		<Placemark>
			<name><![CDATA[Altos de Nsork National Park]]></name>
			<Point>
				<coordinates>11.12,1.16,0</coordinates>
			</Point>
			<Snippet></Snippet>
			<description><![CDATA[<br>Source: Wikipedia article <a href="http://en.wikipedia.org/wiki/Altos_de_Nsork_National_Park">Altos de Nsork National Park</a>]]></description>
		</Placemark>
		<Placemark>
			<name><![CDATA[Altyaghach National Park]]></name>
			<Point>
				<coordinates>48.8936111111111,40.8866666666667,0</coordinates>
			</Point>
			<Snippet></Snippet>
			<description><![CDATA[<br>Source: Wikipedia article <a href="http://en.wikipedia.org/wiki/Altyaghach_National_Park">Altyaghach National Park</a>]]></description>
		</Placemark>
		<Placemark>
			<name><![CDATA[Altyn-Emel National Park]]></name>
			<Point>
				<coordinates>78.4333333333333,44.3333333333333,0</coordinates>
			</Point>
			<Snippet></Snippet>
			<description><![CDATA[<br>Source: Wikipedia article <a href="http://en.wikipedia.org/wiki/Altyn-Emel_National_Park">Altyn-Emel National Park</a>]]></description>
		</Placemark>
		<Placemark>
			<name><![CDATA[Amacayacu National Park]]></name>
			<Point>
				<coordinates>-70.2,-3.48333333333333,0</coordinates>
			</Point>
			<Snippet></Snippet>
			<description><![CDATA[<br>Source: Wikipedia article <a href="http://en.wikipedia.org/wiki/Amacayacu_National_Park">Amacayacu National Park</a>]]></description>
		</Placemark>
		<Placemark>
			<name><![CDATA[Amaravathi Reservoir]]></name>
			<Point>
				<coordinates>77.26,10.4106666666667,0</coordinates>
			</Point>
			<Snippet></Snippet>
			<description><![CDATA[<br>Source: Wikipedia article <a href="http://en.wikipedia.org/wiki/Amaravathi_Reservoir">Amaravathi Reservoir</a>]]></description>
		</Placemark>
		<Placemark>
			<name><![CDATA[Amber Mountain National Park]]></name>
			<Point>
				<coordinates>49.1661111111111,-12.5022222222222,0</coordinates>
			</Point>
			<Snippet></Snippet>
			<description><![CDATA[<br>Source: Wikipedia article <a href="http://en.wikipedia.org/wiki/Amber_Mountain_National_Park">Amber Mountain National Park</a>]]></description>
		</Placemark>
		<Placemark>
			<name><![CDATA[Amboró National Park]]></name>
			<Point>
				<coordinates>-63.9833333333333,-17.7833333333333,0</coordinates>
			</Point>
			<Snippet></Snippet>
			<description><![CDATA[<br>Source: Wikipedia article <a href="http://en.wikipedia.org/wiki/Amboró_National_Park">Amboró National Park</a>]]></description>
		</Placemark>
		<Placemark>
			<name><![CDATA[Amboseli National Park]]></name>
			<Point>
				<coordinates>37.2480555555556,-2.64138888888889,0</coordinates>
			</Point>
			<Snippet></Snippet>
			<description><![CDATA[<br>Source: Wikipedia article <a href="http://en.wikipedia.org/wiki/Amboseli_National_Park">Amboseli National Park</a>]]></description>
		</Placemark>
		<Placemark>
			<name><![CDATA[Amotape Hills National Park]]></name>
			<Point>
				<coordinates>-80.57,-4.097,0</coordinates>
			</Point>
			<Snippet></Snippet>
			<description><![CDATA[<br>Source: Wikipedia article <a href="http://en.wikipedia.org/wiki/Amotape_Hills_National_Park">Amotape Hills National Park</a>]]></description>
		</Placemark>
		<Placemark>
			<name><![CDATA[Anchorage Provincial Park]]></name>
			<Point>
				<coordinates>-66.8041666666667,44.6597222222222,0</coordinates>
			</Point>
			<Snippet></Snippet>
			<description><![CDATA[<br>Source: Wikipedia article <a href="http://en.wikipedia.org/wiki/Anchorage_Provincial_Park">Anchorage Provincial Park</a>]]></description>
		</Placemark>
		<Placemark>
			<name><![CDATA[Andasibe-Mantadia National Park]]></name>
			<Point>
				<coordinates>48.4477777777778,-18.8266666666667,0</coordinates>
			</Point>
			<Snippet></Snippet>
			<description><![CDATA[<br>Source: Wikipedia article <a href="http://en.wikipedia.org/wiki/Andasibe-Mantadia_National_Park">Andasibe-Mantadia National Park</a>]]></description>
		</Placemark>
		<Placemark>
			<name><![CDATA[Andohahela National Park]]></name>
			<Point>
				<coordinates>46.6994444444444,-24.6008333333333,0</coordinates>
			</Point>
			<Snippet></Snippet>
			<description><![CDATA[<br>Source: Wikipedia article <a href="http://en.wikipedia.org/wiki/Andohahela_National_Park">Andohahela National Park</a>]]></description>
		</Placemark>
		<Placemark>
			<name><![CDATA[Andringitra National Park]]></name>
			<Point>
				<coordinates>46.9230555555555,-22.1127777777778,0</coordinates>
			</Point>
			<Snippet></Snippet>
			<description><![CDATA[<br>Source: Wikipedia article <a href="http://en.wikipedia.org/wiki/Andringitra_National_Park">Andringitra National Park</a>]]></description>
		</Placemark>
		<Placemark>
			<name><![CDATA[Angammedilla National Park]]></name>
			<Point>
				<coordinates>80.9371416666667,7.90117777777778,0</coordinates>
			</Point>
			<Snippet></Snippet>
			<description><![CDATA[<br>Source: Wikipedia article <a href="http://en.wikipedia.org/wiki/Angammedilla_National_Park">Angammedilla National Park</a>]]></description>
		</Placemark>
		<Placemark>
			<name><![CDATA[Ankarafantsika National Park]]></name>
			<Point>
				<coordinates>46.95,-16.15,0</coordinates>
			</Point>
			<Snippet></Snippet>
			<description><![CDATA[<br>Source: Wikipedia article <a href="http://en.wikipedia.org/wiki/Ankarafantsika_National_Park">Ankarafantsika National Park</a>]]></description>
		</Placemark>
		<Placemark>
			<name><![CDATA[Annadel State Park]]></name>
			<Point>
				<coordinates>-122.625,38.4291666666667,0</coordinates>
			</Point>
			<Snippet></Snippet>
			<description><![CDATA[<br>Source: Wikipedia article <a href="http://en.wikipedia.org/wiki/Annadel_State_Park">Annadel State Park</a>]]></description>
		</Placemark>
		<Placemark>
			<name><![CDATA[Anshi National Park]]></name>
			<Point>
				<coordinates>74.3833333333333,15.0166666666667,0</coordinates>
			</Point>
			<Snippet></Snippet>
			<description><![CDATA[<br>Source: Wikipedia article <a href="http://en.wikipedia.org/wiki/Anshi_National_Park">Anshi National Park</a>]]></description>
		</Placemark>
		<Placemark>
			<name><![CDATA[Anticosti National Park]]></name>
			<Point>
				<coordinates>-62.8333333333333,49.5,0</coordinates>
			</Point>
			<Snippet></Snippet>
			<description><![CDATA[<br>Source: Wikipedia article <a href="http://en.wikipedia.org/wiki/Anticosti_National_Park">Anticosti National Park</a>]]></description>
		</Placemark>
		<Placemark>
			<name><![CDATA[Ao Phang Nga National Park]]></name>
			<Point>
				<coordinates>98.4833333333333,8.35,0</coordinates>
			</Point>
			<Snippet></Snippet>
			<description><![CDATA[<br>Source: Wikipedia article <a href="http://en.wikipedia.org/wiki/Ao_Phang_Nga_National_Park">Ao Phang Nga National Park</a>]]></description>
		</Placemark>
		<Placemark>
			<name><![CDATA[Aoraki/Mount Cook National Park]]></name>
			<Point>
				<coordinates>170.1,-43.7333333333333,0</coordinates>
			</Point>
			<Snippet></Snippet>
			<description><![CDATA[<br>Source: Wikipedia article <a href="http://en.wikipedia.org/wiki/Aoraki/Mount_Cook_National_Park">Aoraki/Mount Cook National Park</a>]]></description>
		</Placemark>
		<Placemark>
			<name><![CDATA[Aouk National Park]]></name>
			<Point>
				<coordinates>20.1666666666667,9.83305555555556,0</coordinates>
			</Point>
			<Snippet></Snippet>
			<description><![CDATA[<br>Source: Wikipedia article <a href="http://en.wikipedia.org/wiki/Aouk_National_Park">Aouk National Park</a>]]></description>
		</Placemark>
		<Placemark>
			<name><![CDATA[Aparados da Serra National Park]]></name>
			<Point>
				<coordinates>-50.0833333333333,-29.1833333333333,0</coordinates>
			</Point>
			<Snippet></Snippet>
			<description><![CDATA[<br>Source: Wikipedia article <a href="http://en.wikipedia.org/wiki/Aparados_da_Serra_National_Park">Aparados da Serra National Park</a>]]></description>
		</Placemark>
		<Placemark>
			<name><![CDATA[Appennino Tosco-Emiliano National Park]]></name>
			<Point>
				<coordinates>10.2405555555556,44.3183333333333,0</coordinates>
			</Point>
			<Snippet></Snippet>
			<description><![CDATA[<br>Source: Wikipedia article <a href="http://en.wikipedia.org/wiki/Appennino_Tosco-Emiliano_National_Park">Appennino Tosco-Emiliano National Park</a>]]></description>
		</Placemark>
		<Placemark>
			<name><![CDATA[Arabuko Sokoke National Park]]></name>
			<Point>
				<coordinates>39.8166666666667,-3.26666666666667,0</coordinates>
			</Point>
			<Snippet></Snippet>
			<description><![CDATA[<br>Source: Wikipedia article <a href="http://en.wikipedia.org/wiki/Arabuko_Sokoke_National_Park">Arabuko Sokoke National Park</a>]]></description>
		</Placemark>
		<Placemark>
			<name><![CDATA[Arakwal National Park]]></name>
			<Point>
				<coordinates>153.621111111111,-28.6602777777778,0</coordinates>
			</Point>
			<Snippet></Snippet>
			<description><![CDATA[<br>Source: Wikipedia article <a href="http://en.wikipedia.org/wiki/Arakwal_National_Park">Arakwal National Park</a>]]></description>
		</Placemark>
		<Placemark>
			<name><![CDATA[Arches National Park]]></name>
			<Point>
				<coordinates>-109.56667,38.68333,0</coordinates>
			</Point>
			<Snippet></Snippet>
			<description><![CDATA[<br>Source: Wikipedia article <a href="http://en.wikipedia.org/wiki/Arches_National_Park">Arches National Park</a>]]></description>
		</Placemark>
		<Placemark>
			<name><![CDATA[Archipiélago de Juan Fernández National Park]]></name>
			<Point>
				<coordinates>-79.8692,-33.7297,0</coordinates>
			</Point>
			<Snippet></Snippet>
			<description><![CDATA[<br>Source: Wikipedia article <a href="http://en.wikipedia.org/wiki/Archipiélago_de_Juan_Fernández_National_Park">Archipiélago de Juan Fernández National Park</a>]]></description>
		</Placemark>
		<Placemark>
			<name><![CDATA[Arcipelago Toscano National Park]]></name>
			<Point>
				<coordinates>10.3,42.75,0</coordinates>
			</Point>
			<Snippet></Snippet>
			<description><![CDATA[<br>Source: Wikipedia article <a href="http://en.wikipedia.org/wiki/Arcipelago_Toscano_National_Park">Arcipelago Toscano National Park</a>]]></description>
		</Placemark>
		<Placemark>
			<name><![CDATA[Arcipelago di La Maddalena National Park]]></name>
			<Point>
				<coordinates>9.41194444444444,41.2458333333333,0</coordinates>
			</Point>
			<Snippet></Snippet>
			<description><![CDATA[<br>Source: Wikipedia article <a href="http://en.wikipedia.org/wiki/Arcipelago_di_La_Maddalena_National_Park">Arcipelago di La Maddalena National Park</a>]]></description>
		</Placemark>
		<Placemark>
			<name><![CDATA[Area de Conservación Guanacaste World Heritage Site]]></name>
			<Point>
				<coordinates>-85.6166666666667,10.85,0</coordinates>
			</Point>
			<Snippet></Snippet>
			<description><![CDATA[<br>Source: Wikipedia article <a href="http://en.wikipedia.org/wiki/Area_de_Conservación_Guanacaste_World_Heritage_Site">Area de Conservación Guanacaste World Heritage Site</a>]]></description>
		</Placemark>
		<Placemark>
			<name><![CDATA[Arenal Volcano National Park]]></name>
			<Point>
				<coordinates>-84.7030555555556,10.4630555555556,0</coordinates>
			</Point>
			<Snippet></Snippet>
			<description><![CDATA[<br>Source: Wikipedia article <a href="http://en.wikipedia.org/wiki/Arenal_Volcano_National_Park">Arenal Volcano National Park</a>]]></description>
		</Placemark>
		<Placemark>
			<name><![CDATA[Arrecifes de Cozumel National Park]]></name>
			<Point>
				<coordinates>-87.0247222222222,20.2936111111111,0</coordinates>
			</Point>
			<Snippet></Snippet>
			<description><![CDATA[<br>Source: Wikipedia article <a href="http://en.wikipedia.org/wiki/Arrecifes_de_Cozumel_National_Park">Arrecifes de Cozumel National Park</a>]]></description>
		</Placemark>
		<Placemark>
			<name><![CDATA[Arrowhead Provincial Park]]></name>
			<Point>
				<coordinates>-79.1986111111111,45.3916666666667,0</coordinates>
			</Point>
			<Snippet></Snippet>
			<description><![CDATA[<br>Source: Wikipedia article <a href="http://en.wikipedia.org/wiki/Arrowhead_Provincial_Park">Arrowhead Provincial Park</a>]]></description>
		</Placemark>
		<Placemark>
			<name><![CDATA[Arthur's Pass National Park]]></name>
			<Point>
				<coordinates>171.566666666667,-42.95,0</coordinates>
			</Point>
			<Snippet></Snippet>
			<description><![CDATA[<br>Source: Wikipedia article <a href="http://en.wikipedia.org/wiki/Arthur's_Pass_National_Park">Arthur's Pass National Park</a>]]></description>
		</Placemark>
		<Placemark>
			<name><![CDATA[Arusha National Park]]></name>
			<Point>
				<coordinates>36.8333333333333,-3.25,0</coordinates>
			</Point>
			<Snippet></Snippet>
			<description><![CDATA[<br>Source: Wikipedia article <a href="http://en.wikipedia.org/wiki/Arusha_National_Park">Arusha National Park</a>]]></description>
		</Placemark>
		<Placemark>
			<name><![CDATA[Ashizuri-Uwakai National Park]]></name>
			<Point>
				<coordinates>133.02,32.7238888888889,0</coordinates>
			</Point>
			<Snippet></Snippet>
			<description><![CDATA[<br>Source: Wikipedia article <a href="http://en.wikipedia.org/wiki/Ashizuri-Uwakai_National_Park">Ashizuri-Uwakai National Park</a>]]></description>
		</Placemark>
		<Placemark>
			<name><![CDATA[Asinara National Park]]></name>
			<Point>
				<coordinates>8.276,41.058,0</coordinates>
			</Point>
			<Snippet></Snippet>
			<description><![CDATA[<br>Source: Wikipedia article <a href="http://en.wikipedia.org/wiki/Asinara_National_Park">Asinara National Park</a>]]></description>
		</Placemark>
		<Placemark>
			<name><![CDATA[Aso Kujū National Park]]></name>
			<Point>
				<coordinates>131.104166666667,32.885,0</coordinates>
			</Point>
			<Snippet></Snippet>
			<description><![CDATA[<br>Source: Wikipedia article <a href="http://en.wikipedia.org/wiki/Aso_Kujū_National_Park">Aso Kujū National Park</a>]]></description>
		</Placemark>
		<Placemark>
			<name><![CDATA[Aspromonte National Park]]></name>
			<Point>
				<coordinates>15.99,38.17,0</coordinates>
			</Point>
			<Snippet></Snippet>
			<description><![CDATA[<br>Source: Wikipedia article <a href="http://en.wikipedia.org/wiki/Aspromonte_National_Park">Aspromonte National Park</a>]]></description>
		</Placemark>
		<Placemark>
			<name><![CDATA[Assagny National Park]]></name>
			<Point>
				<coordinates>-4.88333333333333,5.2,0</coordinates>
			</Point>
			<Snippet></Snippet>
			<description><![CDATA[<br>Source: Wikipedia article <a href="http://en.wikipedia.org/wiki/Assagny_National_Park">Assagny National Park</a>]]></description>
		</Placemark>
		<Placemark>
			<name><![CDATA[Astrebla Downs National Park]]></name>
			<Point>
				<coordinates>140.569166666667,-24.2113888888889,0</coordinates>
			</Point>
			<Snippet></Snippet>
			<description><![CDATA[<br>Source: Wikipedia article <a href="http://en.wikipedia.org/wiki/Astrebla_Downs_National_Park">Astrebla Downs National Park</a>]]></description>
		</Placemark>
		<Placemark>
			<name><![CDATA[Atlantic Islands of Galicia National Park]]></name>
			<Point>
				<coordinates>-8.93333,42.3806,0</coordinates>
			</Point>
			<Snippet></Snippet>
			<description><![CDATA[<br>Source: Wikipedia article <a href="http://en.wikipedia.org/wiki/Atlantic_Islands_of_Galicia_National_Park">Atlantic Islands of Galicia National Park</a>]]></description>
		</Placemark>
		<Placemark>
			<name><![CDATA[Auburn River National Park]]></name>
			<Point>
				<coordinates>151.051944444444,-25.7216666666667,0</coordinates>
			</Point>
			<Snippet></Snippet>
			<description><![CDATA[<br>Source: Wikipedia article <a href="http://en.wikipedia.org/wiki/Auburn_River_National_Park">Auburn River National Park</a>]]></description>
		</Placemark>
		<Placemark>
			<name><![CDATA[Augrabies Falls National Park]]></name>
			<Point>
				<coordinates>20.3383333333333,-28.5911111111111,0</coordinates>
			</Point>
			<Snippet></Snippet>
			<description><![CDATA[<br>Source: Wikipedia article <a href="http://en.wikipedia.org/wiki/Augrabies_Falls_National_Park">Augrabies Falls National Park</a>]]></description>
		</Placemark>
		<Placemark>
			<name><![CDATA[Aukštaitija National Park]]></name>
			<Point>
				<coordinates>26.057,55.344,0</coordinates>
			</Point>
			<Snippet></Snippet>
			<description><![CDATA[<br>Source: Wikipedia article <a href="http://en.wikipedia.org/wiki/Aukštaitija_National_Park">Aukštaitija National Park</a>]]></description>
		</Placemark>
		<Placemark>
			<name><![CDATA[Aulavik National Park]]></name>
			<Point>
				<coordinates>-119.919444444444,73.7002777777778,0</coordinates>
			</Point>
			<Snippet></Snippet>
			<description><![CDATA[<br>Source: Wikipedia article <a href="http://en.wikipedia.org/wiki/Aulavik_National_Park">Aulavik National Park</a>]]></description>
		</Placemark>
		<Placemark>
			<name><![CDATA[Aurora Memorial National Park]]></name>
			<Point>
				<coordinates>121.416666666667,15.4666666666667,0</coordinates>
			</Point>
			<Snippet></Snippet>
			<description><![CDATA[<br>Source: Wikipedia article <a href="http://en.wikipedia.org/wiki/Aurora_Memorial_National_Park">Aurora Memorial National Park</a>]]></description>
		</Placemark>
		<Placemark>
			<name><![CDATA[Auyuittuq National Park]]></name>
			<Point>
				<coordinates>-65.0166666666667,67.8833333333333,0</coordinates>
			</Point>
			<Snippet></Snippet>
			<description><![CDATA[<br>Source: Wikipedia article <a href="http://en.wikipedia.org/wiki/Auyuittuq_National_Park">Auyuittuq National Park</a>]]></description>
		</Placemark>
		<Placemark>
			<name><![CDATA[Avon Valley National Park]]></name>
			<Point>
				<coordinates>116.183611111111,-31.625,0</coordinates>
			</Point>
			<Snippet></Snippet>
			<description><![CDATA[<br>Source: Wikipedia article <a href="http://en.wikipedia.org/wiki/Avon_Valley_National_Park">Avon Valley National Park</a>]]></description>
		</Placemark>
		<Placemark>
			<name><![CDATA[Awash National Park]]></name>
			<Point>
				<coordinates>40.3333333333333,9.33333333333333,0</coordinates>
			</Point>
			<Snippet></Snippet>
			<description><![CDATA[<br>Source: Wikipedia article <a href="http://en.wikipedia.org/wiki/Awash_National_Park">Awash National Park</a>]]></description>
		</Placemark>
		<Placemark>
			<name><![CDATA[Awenda Provincial Park]]></name>
			<Point>
				<coordinates>-79.9890527777778,44.8416916666667,0</coordinates>
			</Point>
			<Snippet></Snippet>
			<description><![CDATA[<br>Source: Wikipedia article <a href="http://en.wikipedia.org/wiki/Awenda_Provincial_Park">Awenda Provincial Park</a>]]></description>
		</Placemark>
		<Placemark>
			<name><![CDATA[Ba Vi National Park]]></name>
			<Point>
				<coordinates>105.358333333333,21.0780555555556,0</coordinates>
			</Point>
			<Snippet></Snippet>
			<description><![CDATA[<br>Source: Wikipedia article <a href="http://en.wikipedia.org/wiki/Ba_Vi_National_Park">Ba Vi National Park</a>]]></description>
		</Placemark>
		<Placemark>
			<name><![CDATA[Babia Góra National Park]]></name>
			<Point>
				<coordinates>19.5397,49.5883472222222,0</coordinates>
			</Point>
			<Snippet></Snippet>
			<description><![CDATA[<br>Source: Wikipedia article <a href="http://en.wikipedia.org/wiki/Babia_Góra_National_Park">Babia Góra National Park</a>]]></description>
		</Placemark>
		<Placemark>
			<name><![CDATA[Bach Ma National Park]]></name>
			<Point>
				<coordinates>107.866666666667,16.2,0</coordinates>
			</Point>
			<Snippet></Snippet>
			<description><![CDATA[<br>Source: Wikipedia article <a href="http://en.wikipedia.org/wiki/Bach_Ma_National_Park">Bach Ma National Park</a>]]></description>
		</Placemark>
		<Placemark>
			<name><![CDATA[Badgingarra National Park]]></name>
			<Point>
				<coordinates>115.439722222222,-30.4686111111111,0</coordinates>
			</Point>
			<Snippet></Snippet>
			<description><![CDATA[<br>Source: Wikipedia article <a href="http://en.wikipedia.org/wiki/Badgingarra_National_Park">Badgingarra National Park</a>]]></description>
		</Placemark>
		<Placemark>
			<name><![CDATA[Badlands National Park]]></name>
			<Point>
				<coordinates>-102.5,43.75,0</coordinates>
			</Point>
			<Snippet></Snippet>
			<description><![CDATA[<br>Source: Wikipedia article <a href="http://en.wikipedia.org/wiki/Badlands_National_Park">Badlands National Park</a>]]></description>
		</Placemark>
		<Placemark>
			<name><![CDATA[Bafing National Park]]></name>
			<Point>
				<coordinates>-10.8166666666667,13.8,0</coordinates>
			</Point>
			<Snippet></Snippet>
			<description><![CDATA[<br>Source: Wikipedia article <a href="http://en.wikipedia.org/wiki/Bafing_National_Park">Bafing National Park</a>]]></description>
		</Placemark>
		<Placemark>
			<name><![CDATA[Bago Bluff National Park]]></name>
			<Point>
				<coordinates>152.628888888889,-31.5322222222222,0</coordinates>
			</Point>
			<Snippet></Snippet>
			<description><![CDATA[<br>Source: Wikipedia article <a href="http://en.wikipedia.org/wiki/Bago_Bluff_National_Park">Bago Bluff National Park</a>]]></description>
		</Placemark>
		<Placemark>
			<name><![CDATA[Bahuaja-Sonene National Park]]></name>
			<Point>
				<coordinates>-69.45,-13.2666666666667,0</coordinates>
			</Point>
			<Snippet></Snippet>
			<description><![CDATA[<br>Source: Wikipedia article <a href="http://en.wikipedia.org/wiki/Bahuaja-Sonene_National_Park">Bahuaja-Sonene National Park</a>]]></description>
		</Placemark>
		<Placemark>
			<name><![CDATA[Bai Tu Long National Park]]></name>
			<Point>
				<coordinates>107.633333333333,21.1,0</coordinates>
			</Point>
			<Snippet></Snippet>
			<description><![CDATA[<br>Source: Wikipedia article <a href="http://en.wikipedia.org/wiki/Bai_Tu_Long_National_Park">Bai Tu Long National Park</a>]]></description>
		</Placemark>
		<Placemark>
			<name><![CDATA[Bako National Park]]></name>
			<Point>
				<coordinates>110.466666666667,1.71666666666667,0</coordinates>
			</Point>
			<Snippet></Snippet>
			<description><![CDATA[<br>Source: Wikipedia article <a href="http://en.wikipedia.org/wiki/Bako_National_Park">Bako National Park</a>]]></description>
		</Placemark>
		<Placemark>
			<name><![CDATA[Balbalasang-Balbalan National Park]]></name>
			<Point>
				<coordinates>121.15,17.45,0</coordinates>
			</Point>
			<Snippet></Snippet>
			<description><![CDATA[<br>Source: Wikipedia article <a href="http://en.wikipedia.org/wiki/Balbalasang-Balbalan_National_Park">Balbalasang-Balbalan National Park</a>]]></description>
		</Placemark>
		<Placemark>
			<name><![CDATA[Bald Rock National Park]]></name>
			<Point>
				<coordinates>152.055555555556,-28.8525,0</coordinates>
			</Point>
			<Snippet></Snippet>
			<description><![CDATA[<br>Source: Wikipedia article <a href="http://en.wikipedia.org/wiki/Bald_Rock_National_Park">Bald Rock National Park</a>]]></description>
		</Placemark>
		<Placemark>
			<name><![CDATA[Bale Mountains National Park]]></name>
			<Point>
				<coordinates>39.6666666666667,6.66666666666667,0</coordinates>
			</Point>
			<Snippet></Snippet>
			<description><![CDATA[<br>Source: Wikipedia article <a href="http://en.wikipedia.org/wiki/Bale_Mountains_National_Park">Bale Mountains National Park</a>]]></description>
		</Placemark>
		<Placemark>
			<name><![CDATA[Ballycroy National Park]]></name>
			<Point>
				<coordinates>-9.7,54.017,0</coordinates>
			</Point>
			<Snippet></Snippet>
			<description><![CDATA[<br>Source: Wikipedia article <a href="http://en.wikipedia.org/wiki/Ballycroy_National_Park">Ballycroy National Park</a>]]></description>
		</Placemark>
		<Placemark>
			<name><![CDATA[Baluran National Park]]></name>
			<Point>
				<coordinates>114.366666666667,-7.83333333333333,0</coordinates>
			</Point>
			<Snippet></Snippet>
			<description><![CDATA[<br>Source: Wikipedia article <a href="http://en.wikipedia.org/wiki/Baluran_National_Park">Baluran National Park</a>]]></description>
		</Placemark>
		<Placemark>
			<name><![CDATA[Bamingui-Bangoran National Park and Biosphere Reserve]]></name>
			<Point>
				<coordinates>20.2333333333333,8.18333333333333,0</coordinates>
			</Point>
			<Snippet></Snippet>
			<description><![CDATA[<br>Source: Wikipedia article <a href="http://en.wikipedia.org/wiki/Bamingui-Bangoran_National_Park_and_Biosphere_Reserve">Bamingui-Bangoran National Park and Biosphere Reserve</a>]]></description>
		</Placemark>
		<Placemark>
			<name><![CDATA[Banco National Park]]></name>
			<Point>
				<coordinates>-4.05,5.38333333333333,0</coordinates>
			</Point>
			<Snippet></Snippet>
			<description><![CDATA[<br>Source: Wikipedia article <a href="http://en.wikipedia.org/wiki/Banco_National_Park">Banco National Park</a>]]></description>
		</Placemark>
		<Placemark>
			<name><![CDATA[Band-e Amir]]></name>
			<Point>
				<coordinates>67.2308333333333,34.8397222222222,0</coordinates>
			</Point>
			<Snippet></Snippet>
			<description><![CDATA[<br>Source: Wikipedia article <a href="http://en.wikipedia.org/wiki/Band-e_Amir">Band-e Amir</a>]]></description>
		</Placemark>
		<Placemark>
			<name><![CDATA[Bandai-Asahi National Park]]></name>
			<Point>
				<coordinates>139.733333333333,37.8166666666667,0</coordinates>
			</Point>
			<Snippet></Snippet>
			<description><![CDATA[<br>Source: Wikipedia article <a href="http://en.wikipedia.org/wiki/Bandai-Asahi_National_Park">Bandai-Asahi National Park</a>]]></description>
		</Placemark>
		<Placemark>
			<name><![CDATA[Bandhavgarh National Park]]></name>
			<Point>
				<coordinates>80.9619444444444,23.6994444444444,0</coordinates>
			</Point>
			<Snippet></Snippet>
			<description><![CDATA[<br>Source: Wikipedia article <a href="http://en.wikipedia.org/wiki/Bandhavgarh_National_Park">Bandhavgarh National Park</a>]]></description>
		</Placemark>
		<Placemark>
			<name><![CDATA[Bandingilo National Park]]></name>
			<Point>
				<coordinates>32.2775,5.43277777777778,0</coordinates>
			</Point>
			<Snippet></Snippet>
			<description><![CDATA[<br>Source: Wikipedia article <a href="http://en.wikipedia.org/wiki/Bandingilo_National_Park">Bandingilo National Park</a>]]></description>
		</Placemark>
		<Placemark>
			<name><![CDATA[Bandipur National Park]]></name>
			<Point>
				<coordinates>76.6272222222222,11.6616666666667,0</coordinates>
			</Point>
			<Snippet></Snippet>
			<description><![CDATA[<br>Source: Wikipedia article <a href="http://en.wikipedia.org/wiki/Bandipur_National_Park">Bandipur National Park</a>]]></description>
		</Placemark>
		<Placemark>
			<name><![CDATA[Banff National Park]]></name>
			<Point>
				<coordinates>-115.55,51.1666666666667,0</coordinates>
			</Point>
			<Snippet></Snippet>
			<description><![CDATA[<br>Source: Wikipedia article <a href="http://en.wikipedia.org/wiki/Banff_National_Park">Banff National Park</a>]]></description>
		</Placemark>
		<Placemark>
			<name><![CDATA[Bangan Hill National Park]]></name>
			<Point>
				<coordinates>121.316666666667,16.4166666666667,0</coordinates>
			</Point>
			<Snippet></Snippet>
			<description><![CDATA[<br>Source: Wikipedia article <a href="http://en.wikipedia.org/wiki/Bangan_Hill_National_Park">Bangan Hill National Park</a>]]></description>
		</Placemark>
		<Placemark>
			<name><![CDATA[Banhine National Park]]></name>
			<Point>
				<coordinates>32.80848,-22.748599,0</coordinates>
			</Point>
			<Snippet></Snippet>
			<description><![CDATA[<br>Source: Wikipedia article <a href="http://en.wikipedia.org/wiki/Banhine_National_Park">Banhine National Park</a>]]></description>
		</Placemark>
		<Placemark>
			<name><![CDATA[Banke National Park]]></name>
			<Point>
				<coordinates>81.9128,28.1911,0</coordinates>
			</Point>
			<Snippet></Snippet>
			<description><![CDATA[<br>Source: Wikipedia article <a href="http://en.wikipedia.org/wiki/Banke_National_Park">Banke National Park</a>]]></description>
		</Placemark>
		<Placemark>
			<name><![CDATA[Bannerghatta National Park]]></name>
			<Point>
				<coordinates>77.5755555555556,12.8008333333333,0</coordinates>
			</Point>
			<Snippet></Snippet>
			<description><![CDATA[<br>Source: Wikipedia article <a href="http://en.wikipedia.org/wiki/Bannerghatta_National_Park">Bannerghatta National Park</a>]]></description>
		</Placemark>
		<Placemark>
			<name><![CDATA[Bantimurung – Bulusaraung National Park]]></name>
			<Point>
				<coordinates>119.75,-4.9,0</coordinates>
			</Point>
			<Snippet></Snippet>
			<description><![CDATA[<br>Source: Wikipedia article <a href="http://en.wikipedia.org/wiki/Bantimurung_–_Bulusaraung_National_Park">Bantimurung – Bulusaraung National Park</a>]]></description>
		</Placemark>
		<Placemark>
			<name><![CDATA[Bao Bolong Wetland Reserve]]></name>
			<Point>
				<coordinates>-15.8666666666667,13.5166666666667,0</coordinates>
			</Point>
			<Snippet></Snippet>
			<description><![CDATA[<br>Source: Wikipedia article <a href="http://en.wikipedia.org/wiki/Bao_Bolong_Wetland_Reserve">Bao Bolong Wetland Reserve</a>]]></description>
		</Placemark>
		<Placemark>
			<name><![CDATA[Barakee National Park]]></name>
			<Point>
				<coordinates>151.851666666667,-31.6416666666667,0</coordinates>
			</Point>
			<Snippet></Snippet>
			<description><![CDATA[<br>Source: Wikipedia article <a href="http://en.wikipedia.org/wiki/Barakee_National_Park">Barakee National Park</a>]]></description>
		</Placemark>
		<Placemark>
			<name><![CDATA[Barbilla National Park]]></name>
			<Point>
				<coordinates>-83.42,9.942,0</coordinates>
			</Point>
			<Snippet></Snippet>
			<description><![CDATA[<br>Source: Wikipedia article <a href="http://en.wikipedia.org/wiki/Barbilla_National_Park">Barbilla National Park</a>]]></description>
		</Placemark>
		<Placemark>
			<name><![CDATA[Bardiya National Park]]></name>
			<Point>
				<coordinates>81.5,28.3833333333333,0</coordinates>
			</Point>
			<Snippet></Snippet>
			<description><![CDATA[<br>Source: Wikipedia article <a href="http://en.wikipedia.org/wiki/Bardiya_National_Park">Bardiya National Park</a>]]></description>
		</Placemark>
		<Placemark>
			<name><![CDATA[Baritú National Park]]></name>
			<Point>
				<coordinates>-64.8,-22.5666666666667,0</coordinates>
			</Point>
			<Snippet></Snippet>
			<description><![CDATA[<br>Source: Wikipedia article <a href="http://en.wikipedia.org/wiki/Baritú_National_Park">Baritú National Park</a>]]></description>
		</Placemark>
		<Placemark>
			<name><![CDATA[Barmah National Park]]></name>
			<Point>
				<coordinates>145.118055555556,-35.8666666666667,0</coordinates>
			</Point>
			<Snippet></Snippet>
			<description><![CDATA[<br>Source: Wikipedia article <a href="http://en.wikipedia.org/wiki/Barmah_National_Park">Barmah National Park</a>]]></description>
		</Placemark>
		<Placemark>
			<name><![CDATA[Barnard Island Group National Park]]></name>
			<Point>
				<coordinates>146.172777777778,-17.6747222222222,0</coordinates>
			</Point>
			<Snippet></Snippet>
			<description><![CDATA[<br>Source: Wikipedia article <a href="http://en.wikipedia.org/wiki/Barnard_Island_Group_National_Park">Barnard Island Group National Park</a>]]></description>
		</Placemark>
		<Placemark>
			<name><![CDATA[Barool National Park]]></name>
			<Point>
				<coordinates>152.1925,-29.6602777777778,0</coordinates>
			</Point>
			<Snippet></Snippet>
			<description><![CDATA[<br>Source: Wikipedia article <a href="http://en.wikipedia.org/wiki/Barool_National_Park">Barool National Park</a>]]></description>
		</Placemark>
		<Placemark>
			<name><![CDATA[Barra Honda National Park]]></name>
			<Point>
				<coordinates>-85.3333333333333,10.175,0</coordinates>
			</Point>
			<Snippet></Snippet>
			<description><![CDATA[<br>Source: Wikipedia article <a href="http://en.wikipedia.org/wiki/Barra_Honda_National_Park">Barra Honda National Park</a>]]></description>
		</Placemark>
		<Placemark>
			<name><![CDATA[Barranyi (North Island) National Park]]></name>
			<Point>
				<coordinates>136.869444444444,-15.5694444444444,0</coordinates>
			</Point>
			<Snippet></Snippet>
			<description><![CDATA[<br>Source: Wikipedia article <a href="http://en.wikipedia.org/wiki/Barranyi_(North_Island)_National_Park">Barranyi (North Island) National Park</a>]]></description>
		</Placemark>
		<Placemark>
			<name><![CDATA[Barron Gorge National Park]]></name>
			<Point>
				<coordinates>145.652222222222,-16.8427777777778,0</coordinates>
			</Point>
			<Snippet></Snippet>
			<description><![CDATA[<br>Source: Wikipedia article <a href="http://en.wikipedia.org/wiki/Barron_Gorge_National_Park">Barron Gorge National Park</a>]]></description>
		</Placemark>
		<Placemark>
			<name><![CDATA[Basaseachic Falls National Park]]></name>
			<Point>
				<coordinates>-108.25,28.1330555555556,0</coordinates>
			</Point>
			<Snippet></Snippet>
			<description><![CDATA[<br>Source: Wikipedia article <a href="http://en.wikipedia.org/wiki/Basaseachic_Falls_National_Park">Basaseachic Falls National Park</a>]]></description>
		</Placemark>
		<Placemark>
			<name><![CDATA[Basket Swamp National Park]]></name>
			<Point>
				<coordinates>152.153055555556,-28.9330555555556,0</coordinates>
			</Point>
			<Snippet></Snippet>
			<description><![CDATA[<br>Source: Wikipedia article <a href="http://en.wikipedia.org/wiki/Basket_Swamp_National_Park">Basket Swamp National Park</a>]]></description>
		</Placemark>
		<Placemark>
			<name><![CDATA[Basse Casamance National Park]]></name>
			<Point>
				<coordinates>-16.5944444444444,12.3958333333333,0</coordinates>
			</Point>
			<Snippet></Snippet>
			<description><![CDATA[<br>Source: Wikipedia article <a href="http://en.wikipedia.org/wiki/Basse_Casamance_National_Park">Basse Casamance National Park</a>]]></description>
		</Placemark>
		<Placemark>
			<name><![CDATA[Bataan National Park]]></name>
			<Point>
				<coordinates>120.6,14.65,0</coordinates>
			</Point>
			<Snippet></Snippet>
			<description><![CDATA[<br>Source: Wikipedia article <a href="http://en.wikipedia.org/wiki/Bataan_National_Park">Bataan National Park</a>]]></description>
		</Placemark>
		<Placemark>
			<name><![CDATA[Batang Ai National Park]]></name>
			<Point>
				<coordinates>111.883333333333,1.13333333333333,0</coordinates>
			</Point>
			<Snippet></Snippet>
			<description><![CDATA[<br>Source: Wikipedia article <a href="http://en.wikipedia.org/wiki/Batang_Ai_National_Park">Batang Ai National Park</a>]]></description>
		</Placemark>
		<Placemark>
			<name><![CDATA[Batang Gadis National Park]]></name>
			<Point>
				<coordinates>99.5,0.716666666666667,0</coordinates>
			</Point>
			<Snippet></Snippet>
			<description><![CDATA[<br>Source: Wikipedia article <a href="http://en.wikipedia.org/wiki/Batang_Gadis_National_Park">Batang Gadis National Park</a>]]></description>
		</Placemark>
		<Placemark>
			<name><![CDATA[Batchawana Bay Provincial Park]]></name>
			<Point>
				<coordinates>-84.5580555555556,46.9425,0</coordinates>
			</Point>
			<Snippet></Snippet>
			<description><![CDATA[<br>Source: Wikipedia article <a href="http://en.wikipedia.org/wiki/Batchawana_Bay_Provincial_Park">Batchawana Bay Provincial Park</a>]]></description>
		</Placemark>
		<Placemark>
			<name><![CDATA[Batéké Plateau National Park]]></name>
			<Point>
				<coordinates>14.02,-2.188,0</coordinates>
			</Point>
			<Snippet></Snippet>
			<description><![CDATA[<br>Source: Wikipedia article <a href="http://en.wikipedia.org/wiki/Batéké_Plateau_National_Park">Batéké Plateau National Park</a>]]></description>
		</Placemark>
		<Placemark>
			<name><![CDATA[Baw Baw National Park]]></name>
			<Point>
				<coordinates>146.223055555556,-37.7638888888889,0</coordinates>
			</Point>
			<Snippet></Snippet>
			<description><![CDATA[<br>Source: Wikipedia article <a href="http://en.wikipedia.org/wiki/Baw_Baw_National_Park">Baw Baw National Park</a>]]></description>
		</Placemark>
		<Placemark>
			<name><![CDATA[Bayanaul National Park]]></name>
			<Point>
				<coordinates>75.6666666666667,50.8166666666667,0</coordinates>
			</Point>
			<Snippet></Snippet>
			<description><![CDATA[<br>Source: Wikipedia article <a href="http://en.wikipedia.org/wiki/Bayanaul_National_Park">Bayanaul National Park</a>]]></description>
		</Placemark>
		<Placemark>
			<name><![CDATA[Bazaruto National Park]]></name>
			<Point>
				<coordinates>35.465927,-21.665724,0</coordinates>
			</Point>
			<Snippet></Snippet>
			<description><![CDATA[<br>Source: Wikipedia article <a href="http://en.wikipedia.org/wiki/Bazaruto_National_Park">Bazaruto National Park</a>]]></description>
		</Placemark>
		<Placemark>
			<name><![CDATA[Beedelup National Park]]></name>
			<Point>
				<coordinates>115.877777777778,-34.4183333333333,0</coordinates>
			</Point>
			<Snippet></Snippet>
			<description><![CDATA[<br>Source: Wikipedia article <a href="http://en.wikipedia.org/wiki/Beedelup_National_Park">Beedelup National Park</a>]]></description>
		</Placemark>
		<Placemark>
			<name><![CDATA[Beelu National Park]]></name>
			<Point>
				<coordinates>116.149722222222,-31.9544444444444,0</coordinates>
			</Point>
			<Snippet></Snippet>
			<description><![CDATA[<br>Source: Wikipedia article <a href="http://en.wikipedia.org/wiki/Beelu_National_Park">Beelu National Park</a>]]></description>
		</Placemark>
		<Placemark>
			<name><![CDATA[Belezma National Park]]></name>
			<Point>
				<coordinates>6.03333333333333,35.5833333333333,0</coordinates>
			</Point>
			<Snippet></Snippet>
			<description><![CDATA[<br>Source: Wikipedia article <a href="http://en.wikipedia.org/wiki/Belezma_National_Park">Belezma National Park</a>]]></description>
		</Placemark>
		<Placemark>
			<name><![CDATA[Bellinger River National Park]]></name>
			<Point>
				<coordinates>152.693888888889,-30.4094444444444,0</coordinates>
			</Point>
			<Snippet></Snippet>
			<description><![CDATA[<br>Source: Wikipedia article <a href="http://en.wikipedia.org/wiki/Bellinger_River_National_Park">Bellinger River National Park</a>]]></description>
		</Placemark>
		<Placemark>
			<name><![CDATA[Ben Boyd National Park]]></name>
			<Point>
				<coordinates>149.982222222222,-37.1786111111111,0</coordinates>
			</Point>
			<Snippet></Snippet>
			<description><![CDATA[<br>Source: Wikipedia article <a href="http://en.wikipedia.org/wiki/Ben_Boyd_National_Park">Ben Boyd National Park</a>]]></description>
		</Placemark>
		<Placemark>
			<name><![CDATA[Ben En National Park]]></name>
			<Point>
				<coordinates>105.525,19.6166666666667,0</coordinates>
			</Point>
			<Snippet></Snippet>
			<description><![CDATA[<br>Source: Wikipedia article <a href="http://en.wikipedia.org/wiki/Ben_En_National_Park">Ben En National Park</a>]]></description>
		</Placemark>
		<Placemark>
			<name><![CDATA[Ben Lomond National Park]]></name>
			<Point>
				<coordinates>147.666944444444,-41.5508333333333,0</coordinates>
			</Point>
			<Snippet></Snippet>
			<description><![CDATA[<br>Source: Wikipedia article <a href="http://en.wikipedia.org/wiki/Ben_Lomond_National_Park">Ben Lomond National Park</a>]]></description>
		</Placemark>
		<Placemark>
			<name><![CDATA[Bendidee National Park]]></name>
			<Point>
				<coordinates>150.517777777778,-28.3002777777778,0</coordinates>
			</Point>
			<Snippet></Snippet>
			<description><![CDATA[<br>Source: Wikipedia article <a href="http://en.wikipedia.org/wiki/Bendidee_National_Park">Bendidee National Park</a>]]></description>
		</Placemark>
		<Placemark>
			<name><![CDATA[Berbak National Park]]></name>
			<Point>
				<coordinates>104.333333333333,-1.38333333333333,0</coordinates>
			</Point>
			<Snippet></Snippet>
			<description><![CDATA[<br>Source: Wikipedia article <a href="http://en.wikipedia.org/wiki/Berbak_National_Park">Berbak National Park</a>]]></description>
		</Placemark>
		<Placemark>
			<name><![CDATA[Berchtesgaden National Park]]></name>
			<Point>
				<coordinates>12.9166666666667,47.5333333333333,0</coordinates>
			</Point>
			<Snippet></Snippet>
			<description><![CDATA[<br>Source: Wikipedia article <a href="http://en.wikipedia.org/wiki/Berchtesgaden_National_Park">Berchtesgaden National Park</a>]]></description>
		</Placemark>
		<Placemark>
			<name><![CDATA[Bernardo O'Higgins National Park]]></name>
			<Point>
				<coordinates>-74,-50,0</coordinates>
			</Point>
			<Snippet></Snippet>
			<description><![CDATA[<br>Source: Wikipedia article <a href="http://en.wikipedia.org/wiki/Bernardo_O'Higgins_National_Park">Bernardo O'Higgins National Park</a>]]></description>
		</Placemark>
		<Placemark>
			<name><![CDATA[Betung Kerihun National Park]]></name>
			<Point>
				<coordinates>113.353055555556,1.22083333333333,0</coordinates>
			</Point>
			<Snippet></Snippet>
			<description><![CDATA[<br>Source: Wikipedia article <a href="http://en.wikipedia.org/wiki/Betung_Kerihun_National_Park">Betung Kerihun National Park</a>]]></description>
		</Placemark>
		<Placemark>
			<name><![CDATA[Bhagwan Mahaveer Sanctuary and Mollem National Park]]></name>
			<Point>
				<coordinates>74.2586111111111,15.3736111111111,0</coordinates>
			</Point>
			<Snippet></Snippet>
			<description><![CDATA[<br>Source: Wikipedia article <a href="http://en.wikipedia.org/wiki/Bhagwan_Mahaveer_Sanctuary_and_Mollem_National_Park">Bhagwan Mahaveer Sanctuary and Mollem National Park</a>]]></description>
		</Placemark>
		<Placemark>
			<name><![CDATA[Bhitarkanika National Park]]></name>
			<Point>
				<coordinates>87,20.75,0</coordinates>
			</Point>
			<Snippet></Snippet>
			<description><![CDATA[<br>Source: Wikipedia article <a href="http://en.wikipedia.org/wiki/Bhitarkanika_National_Park">Bhitarkanika National Park</a>]]></description>
		</Placemark>
		<Placemark>
			<name><![CDATA[Biak-na-Bato National Park]]></name>
			<Point>
				<coordinates>121.0015,15.2,0</coordinates>
			</Point>
			<Snippet></Snippet>
			<description><![CDATA[<br>Source: Wikipedia article <a href="http://en.wikipedia.org/wiki/Biak-na-Bato_National_Park">Biak-na-Bato National Park</a>]]></description>
		</Placemark>
		<Placemark>
			<name><![CDATA[Biamanga National Park]]></name>
			<Point>
				<coordinates>149.941944444444,-36.4511111111111,0</coordinates>
			</Point>
			<Snippet></Snippet>
			<description><![CDATA[<br>Source: Wikipedia article <a href="http://en.wikipedia.org/wiki/Biamanga_National_Park">Biamanga National Park</a>]]></description>
		</Placemark>
		<Placemark>
			<name><![CDATA[Białowieża Forest]]></name>
			<Point>
				<coordinates>23.8333333333333,52.6666666666667,0</coordinates>
			</Point>
			<Snippet></Snippet>
			<description><![CDATA[<br>Source: Wikipedia article <a href="http://en.wikipedia.org/wiki/Białowieża_Forest">Białowieża Forest</a>]]></description>
		</Placemark>
		<Placemark>
			<name><![CDATA[Bic National Park]]></name>
			<Point>
				<coordinates>-68.7833333333333,48.35,0</coordinates>
			</Point>
			<Snippet></Snippet>
			<description><![CDATA[<br>Source: Wikipedia article <a href="http://en.wikipedia.org/wiki/Bic_National_Park">Bic National Park</a>]]></description>
		</Placemark>
		<Placemark>
			<name><![CDATA[Bicauri National Park]]></name>
			<Point>
				<coordinates>14.80722216,-15.28977489,0</coordinates>
			</Point>
			<Snippet></Snippet>
			<description><![CDATA[<br>Source: Wikipedia article <a href="http://en.wikipedia.org/wiki/Bicauri_National_Park">Bicauri National Park</a>]]></description>
		</Placemark>
		<Placemark>
			<name><![CDATA[Bidoup Nui Ba National Park]]></name>
			<Point>
				<coordinates>108.5,12.4333333333333,0</coordinates>
			</Point>
			<Snippet></Snippet>
			<description><![CDATA[<br>Source: Wikipedia article <a href="http://en.wikipedia.org/wiki/Bidoup_Nui_Ba_National_Park">Bidoup Nui Ba National Park</a>]]></description>
		</Placemark>
		<Placemark>
			<name><![CDATA[Biebrza National Park]]></name>
			<Point>
				<coordinates>22.6613,53.4666,0</coordinates>
			</Point>
			<Snippet></Snippet>
			<description><![CDATA[<br>Source: Wikipedia article <a href="http://en.wikipedia.org/wiki/Biebrza_National_Park">Biebrza National Park</a>]]></description>
		</Placemark>
		<Placemark>
			<name><![CDATA[Bieszczady National Park]]></name>
			<Point>
				<coordinates>22.497,49.288,0</coordinates>
			</Point>
			<Snippet></Snippet>
			<description><![CDATA[<br>Source: Wikipedia article <a href="http://en.wikipedia.org/wiki/Bieszczady_National_Park">Bieszczady National Park</a>]]></description>
		</Placemark>
		<Placemark>
			<name><![CDATA[Big Basin Redwoods State Park]]></name>
			<Point>
				<coordinates>-122.2225,37.1725,0</coordinates>
			</Point>
			<Snippet></Snippet>
			<description><![CDATA[<br>Source: Wikipedia article <a href="http://en.wikipedia.org/wiki/Big_Basin_Redwoods_State_Park">Big Basin Redwoods State Park</a>]]></description>
		</Placemark>
		<Placemark>
			<name><![CDATA[Bimberamala National Park]]></name>
			<Point>
				<coordinates>150.113888888889,-35.4869444444444,0</coordinates>
			</Point>
			<Snippet></Snippet>
			<description><![CDATA[<br>Source: Wikipedia article <a href="http://en.wikipedia.org/wiki/Bimberamala_National_Park">Bimberamala National Park</a>]]></description>
		</Placemark>
		<Placemark>
			<name><![CDATA[Bindarri National Park]]></name>
			<Point>
				<coordinates>152.933055555556,-30.295,0</coordinates>
			</Point>
			<Snippet></Snippet>
			<description><![CDATA[<br>Source: Wikipedia article <a href="http://en.wikipedia.org/wiki/Bindarri_National_Park">Bindarri National Park</a>]]></description>
		</Placemark>
		<Placemark>
			<name><![CDATA[Biogradska Gora]]></name>
			<Point>
				<coordinates>19.6019444444444,42.8980555555556,0</coordinates>
			</Point>
			<Snippet></Snippet>
			<description><![CDATA[<br>Source: Wikipedia article <a href="http://en.wikipedia.org/wiki/Biogradska_Gora">Biogradska Gora</a>]]></description>
		</Placemark>
		<Placemark>
			<name><![CDATA[Biriwal Bulga National Park]]></name>
			<Point>
				<coordinates>152.306388888889,-31.5072222222222,0</coordinates>
			</Point>
			<Snippet></Snippet>
			<description><![CDATA[<br>Source: Wikipedia article <a href="http://en.wikipedia.org/wiki/Biriwal_Bulga_National_Park">Biriwal Bulga National Park</a>]]></description>
		</Placemark>
		<Placemark>
			<name><![CDATA[Birougou National Park]]></name>
			<Point>
				<coordinates>12.2666666666667,-1.76666666666667,0</coordinates>
			</Point>
			<Snippet></Snippet>
			<description><![CDATA[<br>Source: Wikipedia article <a href="http://en.wikipedia.org/wiki/Birougou_National_Park">Birougou National Park</a>]]></description>
		</Placemark>
		<Placemark>
			<name><![CDATA[Biscayne National Park]]></name>
			<Point>
				<coordinates>-80.1861111111111,25.4694444444444,0</coordinates>
			</Point>
			<Snippet></Snippet>
			<description><![CDATA[<br>Source: Wikipedia article <a href="http://en.wikipedia.org/wiki/Biscayne_National_Park">Biscayne National Park</a>]]></description>
		</Placemark>
		<Placemark>
			<name><![CDATA[Björnlandet National Park]]></name>
			<Point>
				<coordinates>18.0166666666667,63.9666666666667,0</coordinates>
			</Point>
			<Snippet></Snippet>
			<description><![CDATA[<br>Source: Wikipedia article <a href="http://en.wikipedia.org/wiki/Björnlandet_National_Park">Björnlandet National Park</a>]]></description>
		</Placemark>
		<Placemark>
			<name><![CDATA[Black Canyon of the Gunnison National Park]]></name>
			<Point>
				<coordinates>-107.716666666667,38.5666666666667,0</coordinates>
			</Point>
			<Snippet></Snippet>
			<description><![CDATA[<br>Source: Wikipedia article <a href="http://en.wikipedia.org/wiki/Black_Canyon_of_the_Gunnison_National_Park">Black Canyon of the Gunnison National Park</a>]]></description>
		</Placemark>
		<Placemark>
			<name><![CDATA[Black Mountain (Kalkajaka) National Park]]></name>
			<Point>
				<coordinates>145.231944444444,-15.6680555555556,0</coordinates>
			</Point>
			<Snippet></Snippet>
			<description><![CDATA[<br>Source: Wikipedia article <a href="http://en.wikipedia.org/wiki/Black_Mountain_(Kalkajaka)_National_Park">Black Mountain (Kalkajaka) National Park</a>]]></description>
		</Placemark>
		<Placemark>
			<name><![CDATA[Black Range State Park]]></name>
			<Point>
				<coordinates>142.0819063,-37.15770143,0</coordinates>
			</Point>
			<Snippet></Snippet>
			<description><![CDATA[<br>Source: Wikipedia article <a href="http://en.wikipedia.org/wiki/Black_Range_State_Park">Black Range State Park</a>]]></description>
		</Placemark>
		<Placemark>
			<name><![CDATA[Blackbraes National Park]]></name>
			<Point>
				<coordinates>144.181388888889,-19.4788888888889,0</coordinates>
			</Point>
			<Snippet></Snippet>
			<description><![CDATA[<br>Source: Wikipedia article <a href="http://en.wikipedia.org/wiki/Blackbraes_National_Park">Blackbraes National Park</a>]]></description>
		</Placemark>
		<Placemark>
			<name><![CDATA[Blackbuck National Park, Velavadar]]></name>
			<Point>
				<coordinates>72.05,22.0333333333333,0</coordinates>
			</Point>
			<Snippet></Snippet>
			<description><![CDATA[<br>Source: Wikipedia article <a href="http://en.wikipedia.org/wiki/Blackbuck_National_Park,_Velavadar">Blackbuck National Park, Velavadar</a>]]></description>
		</Placemark>
		<Placemark>
			<name><![CDATA[Blackdown Tableland National Park]]></name>
			<Point>
				<coordinates>149.060277777778,-23.7236111111111,0</coordinates>
			</Point>
			<Snippet></Snippet>
			<description><![CDATA[<br>Source: Wikipedia article <a href="http://en.wikipedia.org/wiki/Blackdown_Tableland_National_Park">Blackdown Tableland National Park</a>]]></description>
		</Placemark>
		<Placemark>
			<name><![CDATA[Blackwood National Park]]></name>
			<Point>
				<coordinates>146.715,-21.4616666666667,0</coordinates>
			</Point>
			<Snippet></Snippet>
			<description><![CDATA[<br>Source: Wikipedia article <a href="http://en.wikipedia.org/wiki/Blackwood_National_Park">Blackwood National Park</a>]]></description>
		</Placemark>
		<Placemark>
			<name><![CDATA[Bladensburg National Park]]></name>
			<Point>
				<coordinates>142.988055555556,-22.5033333333333,0</coordinates>
			</Point>
			<Snippet></Snippet>
			<description><![CDATA[<br>Source: Wikipedia article <a href="http://en.wikipedia.org/wiki/Bladensburg_National_Park">Bladensburg National Park</a>]]></description>
		</Placemark>
		<Placemark>
			<name><![CDATA[Blue Mountains National Park]]></name>
			<Point>
				<coordinates>150.304166666667,-33.9677777777778,0</coordinates>
			</Point>
			<Snippet></Snippet>
			<description><![CDATA[<br>Source: Wikipedia article <a href="http://en.wikipedia.org/wiki/Blue_Mountains_National_Park">Blue Mountains National Park</a>]]></description>
		</Placemark>
		<Placemark>
			<name><![CDATA[Blå Jungfrun]]></name>
			<Point>
				<coordinates>16.7833333333333,57.2666666666667,0</coordinates>
			</Point>
			<Snippet></Snippet>
			<description><![CDATA[<br>Source: Wikipedia article <a href="http://en.wikipedia.org/wiki/Blå_Jungfrun">Blå Jungfrun</a>]]></description>
		</Placemark>
		<Placemark>
			<name><![CDATA[Blåfjella–Skjækerfjella National Park]]></name>
			<Point>
				<coordinates>13.2333333333333,64.15,0</coordinates>
			</Point>
			<Snippet></Snippet>
			<description><![CDATA[<br>Source: Wikipedia article <a href="http://en.wikipedia.org/wiki/Blåfjella–Skjækerfjella_National_Park">Blåfjella–Skjækerfjella National Park</a>]]></description>
		</Placemark>
		<Placemark>
			<name><![CDATA[Bob Hunter Memorial Park]]></name>
			<Point>
				<coordinates>-79.2125,43.8541666666667,0</coordinates>
			</Point>
			<Snippet></Snippet>
			<description><![CDATA[<br>Source: Wikipedia article <a href="http://en.wikipedia.org/wiki/Bob_Hunter_Memorial_Park">Bob Hunter Memorial Park</a>]]></description>
		</Placemark>
		<Placemark>
			<name><![CDATA[Bogani Nani Wartabone National Park]]></name>
			<Point>
				<coordinates>123.68,0.560555555555556,0</coordinates>
			</Point>
			<Snippet></Snippet>
			<description><![CDATA[<br>Source: Wikipedia article <a href="http://en.wikipedia.org/wiki/Bogani_Nani_Wartabone_National_Park">Bogani Nani Wartabone National Park</a>]]></description>
		</Placemark>
		<Placemark>
			<name><![CDATA[Bohemian Switzerland]]></name>
			<Point>
				<coordinates>14.25,50.8333333333333,0</coordinates>
			</Point>
			<Snippet></Snippet>
			<description><![CDATA[<br>Source: Wikipedia article <a href="http://en.wikipedia.org/wiki/Bohemian_Switzerland">Bohemian Switzerland</a>]]></description>
		</Placemark>
		<Placemark>
			<name><![CDATA[Boma National Park]]></name>
			<Point>
				<coordinates>33.78,6.15,0</coordinates>
			</Point>
			<Snippet></Snippet>
			<description><![CDATA[<br>Source: Wikipedia article <a href="http://en.wikipedia.org/wiki/Boma_National_Park">Boma National Park</a>]]></description>
		</Placemark>
		<Placemark>
			<name><![CDATA[Bon Echo Provincial Park]]></name>
			<Point>
				<coordinates>-77.255,44.9038888888889,0</coordinates>
			</Point>
			<Snippet></Snippet>
			<description><![CDATA[<br>Source: Wikipedia article <a href="http://en.wikipedia.org/wiki/Bon_Echo_Provincial_Park">Bon Echo Provincial Park</a>]]></description>
		</Placemark>
		<Placemark>
			<name><![CDATA[Bongil Bongil National Park]]></name>
			<Point>
				<coordinates>153.034722222222,-30.3986111111111,0</coordinates>
			</Point>
			<Snippet></Snippet>
			<description><![CDATA[<br>Source: Wikipedia article <a href="http://en.wikipedia.org/wiki/Bongil_Bongil_National_Park">Bongil Bongil National Park</a>]]></description>
		</Placemark>
		<Placemark>
			<name><![CDATA[Bonnechere Provincial Park]]></name>
			<Point>
				<coordinates>-77.573,45.659,0</coordinates>
			</Point>
			<Snippet></Snippet>
			<description><![CDATA[<br>Source: Wikipedia article <a href="http://en.wikipedia.org/wiki/Bonnechere_Provincial_Park">Bonnechere Provincial Park</a>]]></description>
		</Placemark>
		<Placemark>
			<name><![CDATA[Bonnechere River Provincial Park]]></name>
			<Point>
				<coordinates>-77.69,45.67,0</coordinates>
			</Point>
			<Snippet></Snippet>
			<description><![CDATA[<br>Source: Wikipedia article <a href="http://en.wikipedia.org/wiki/Bonnechere_River_Provincial_Park">Bonnechere River Provincial Park</a>]]></description>
		</Placemark>
		<Placemark>
			<name><![CDATA[Bontebok National Park]]></name>
			<Point>
				<coordinates>20.45,-34.0666666666667,0</coordinates>
			</Point>
			<Snippet></Snippet>
			<description><![CDATA[<br>Source: Wikipedia article <a href="http://en.wikipedia.org/wiki/Bontebok_National_Park">Bontebok National Park</a>]]></description>
		</Placemark>
		<Placemark>
			<name><![CDATA[Booderee National Park and Botanic Gardens]]></name>
			<Point>
				<coordinates>150.645277777778,-35.1508333333333,0</coordinates>
			</Point>
			<Snippet></Snippet>
			<description><![CDATA[<br>Source: Wikipedia article <a href="http://en.wikipedia.org/wiki/Booderee_National_Park_and_Botanic_Gardens">Booderee National Park and Botanic Gardens</a>]]></description>
		</Placemark>
		<Placemark>
			<name><![CDATA[Boodjamulla National Park]]></name>
			<Point>
				<coordinates>138.4875,-18.7013888888889,0</coordinates>
			</Point>
			<Snippet></Snippet>
			<description><![CDATA[<br>Source: Wikipedia article <a href="http://en.wikipedia.org/wiki/Boodjamulla_National_Park">Boodjamulla National Park</a>]]></description>
		</Placemark>
		<Placemark>
			<name><![CDATA[Boonoo Boonoo National Park]]></name>
			<Point>
				<coordinates>152.178333333333,-28.8175,0</coordinates>
			</Point>
			<Snippet></Snippet>
			<description><![CDATA[<br>Source: Wikipedia article <a href="http://en.wikipedia.org/wiki/Boonoo_Boonoo_National_Park">Boonoo Boonoo National Park</a>]]></description>
		</Placemark>
		<Placemark>
			<name><![CDATA[Boorabbin National Park]]></name>
			<Point>
				<coordinates>120.169166666667,-31.2383333333333,0</coordinates>
			</Point>
			<Snippet></Snippet>
			<description><![CDATA[<br>Source: Wikipedia article <a href="http://en.wikipedia.org/wiki/Boorabbin_National_Park">Boorabbin National Park</a>]]></description>
		</Placemark>
		<Placemark>
			<name><![CDATA[Booti Booti National Park]]></name>
			<Point>
				<coordinates>152.543333333333,-32.2444444444444,0</coordinates>
			</Point>
			<Snippet></Snippet>
			<description><![CDATA[<br>Source: Wikipedia article <a href="http://en.wikipedia.org/wiki/Booti_Booti_National_Park">Booti Booti National Park</a>]]></description>
		</Placemark>
		<Placemark>
			<name><![CDATA[Border Ranges National Park]]></name>
			<Point>
				<coordinates>152.986111111111,-28.3597222222222,0</coordinates>
			</Point>
			<Snippet></Snippet>
			<description><![CDATA[<br>Source: Wikipedia article <a href="http://en.wikipedia.org/wiki/Border_Ranges_National_Park">Border Ranges National Park</a>]]></description>
		</Placemark>
		<Placemark>
			<name><![CDATA[Bory Tucholskie National Park]]></name>
			<Point>
				<coordinates>17.303,53.4358,0</coordinates>
			</Point>
			<Snippet></Snippet>
			<description><![CDATA[<br>Source: Wikipedia article <a href="http://en.wikipedia.org/wiki/Bory_Tucholskie_National_Park">Bory Tucholskie National Park</a>]]></description>
		</Placemark>
		<Placemark>
			<name><![CDATA[Bosque de Fray Jorge National Park]]></name>
			<Point>
				<coordinates>-71.6666666666667,-30.6666666666667,0</coordinates>
			</Point>
			<Snippet></Snippet>
			<description><![CDATA[<br>Source: Wikipedia article <a href="http://en.wikipedia.org/wiki/Bosque_de_Fray_Jorge_National_Park">Bosque de Fray Jorge National Park</a>]]></description>
		</Placemark>
		<Placemark>
			<name><![CDATA[Botum Sakor National Park]]></name>
			<Point>
				<coordinates>103.24969205,11.11553035,0</coordinates>
			</Point>
			<Snippet></Snippet>
			<description><![CDATA[<br>Source: Wikipedia article <a href="http://en.wikipedia.org/wiki/Botum_Sakor_National_Park">Botum Sakor National Park</a>]]></description>
		</Placemark>
		<Placemark>
			<name><![CDATA[Bouba Njida National Park]]></name>
			<Point>
				<coordinates>14.6566666666667,8.62361111111111,0</coordinates>
			</Point>
			<Snippet></Snippet>
			<description><![CDATA[<br>Source: Wikipedia article <a href="http://en.wikipedia.org/wiki/Bouba_Njida_National_Park">Bouba Njida National Park</a>]]></description>
		</Placemark>
		<Placemark>
			<name><![CDATA[Boucle du Baoulé National Park]]></name>
			<Point>
				<coordinates>-9,14,0</coordinates>
			</Point>
			<Snippet></Snippet>
			<description><![CDATA[<br>Source: Wikipedia article <a href="http://en.wikipedia.org/wiki/Boucle_du_Baoulé_National_Park">Boucle du Baoulé National Park</a>]]></description>
		</Placemark>
		<Placemark>
			<name><![CDATA[Bouddi National Park]]></name>
			<Point>
				<coordinates>151.4,-33.5166666666667,0</coordinates>
			</Point>
			<Snippet></Snippet>
			<description><![CDATA[<br>Source: Wikipedia article <a href="http://en.wikipedia.org/wiki/Bouddi_National_Park">Bouddi National Park</a>]]></description>
		</Placemark>
		<Placemark>
			<name><![CDATA[Boumba Bek National Park]]></name>
			<Point>
				<coordinates>15.7,2.21666666666667,0</coordinates>
			</Point>
			<Snippet></Snippet>
			<description><![CDATA[<br>Source: Wikipedia article <a href="http://en.wikipedia.org/wiki/Boumba_Bek_National_Park">Boumba Bek National Park</a>]]></description>
		</Placemark>
		<Placemark>
			<name><![CDATA[Bournda National Park]]></name>
			<Point>
				<coordinates>149.918611111111,-36.4766666666667,0</coordinates>
			</Point>
			<Snippet></Snippet>
			<description><![CDATA[<br>Source: Wikipedia article <a href="http://en.wikipedia.org/wiki/Bournda_National_Park">Bournda National Park</a>]]></description>
		</Placemark>
		<Placemark>
			<name><![CDATA[Bowling Green Bay National Park]]></name>
			<Point>
				<coordinates>147.033888888889,-19.2133333333333,0</coordinates>
			</Point>
			<Snippet></Snippet>
			<description><![CDATA[<br>Source: Wikipedia article <a href="http://en.wikipedia.org/wiki/Bowling_Green_Bay_National_Park">Bowling Green Bay National Park</a>]]></description>
		</Placemark>
		<Placemark>
			<name><![CDATA[Bowron Lake Provincial Park]]></name>
			<Point>
				<coordinates>-121.083333333333,53.1666666666667,0</coordinates>
			</Point>
			<Snippet></Snippet>
			<description><![CDATA[<br>Source: Wikipedia article <a href="http://en.wikipedia.org/wiki/Bowron_Lake_Provincial_Park">Bowron Lake Provincial Park</a>]]></description>
		</Placemark>
		<Placemark>
			<name><![CDATA[Brampton Islands National Park]]></name>
			<Point>
				<coordinates>149.285555555556,-20.7875,0</coordinates>
			</Point>
			<Snippet></Snippet>
			<description><![CDATA[<br>Source: Wikipedia article <a href="http://en.wikipedia.org/wiki/Brampton_Islands_National_Park">Brampton Islands National Park</a>]]></description>
		</Placemark>
		<Placemark>
			<name><![CDATA[Brandywine Falls Provincial Park]]></name>
			<Point>
				<coordinates>-123.118611111111,50.0352777777778,0</coordinates>
			</Point>
			<Snippet></Snippet>
			<description><![CDATA[<br>Source: Wikipedia article <a href="http://en.wikipedia.org/wiki/Brandywine_Falls_Provincial_Park">Brandywine Falls Provincial Park</a>]]></description>
		</Placemark>
		<Placemark>
			<name><![CDATA[Brasília National Park]]></name>
			<Point>
				<coordinates>-47.926667,-15.738056,0</coordinates>
			</Point>
			<Snippet></Snippet>
			<description><![CDATA[<br>Source: Wikipedia article <a href="http://en.wikipedia.org/wiki/Brasília_National_Park">Brasília National Park</a>]]></description>
		</Placemark>
		<Placemark>
			<name><![CDATA[Braulio Carrillo National Park]]></name>
			<Point>
				<coordinates>-83.974425,10.1599,0</coordinates>
			</Point>
			<Snippet></Snippet>
			<description><![CDATA[<br>Source: Wikipedia article <a href="http://en.wikipedia.org/wiki/Braulio_Carrillo_National_Park">Braulio Carrillo National Park</a>]]></description>
		</Placemark>
		<Placemark>
			<name><![CDATA[Breheimen National Park]]></name>
			<Point>
				<coordinates>7.0967,61.7195,0</coordinates>
			</Point>
			<Snippet></Snippet>
			<description><![CDATA[<br>Source: Wikipedia article <a href="http://en.wikipedia.org/wiki/Breheimen_National_Park">Breheimen National Park</a>]]></description>
		</Placemark>
		<Placemark>
			<name><![CDATA[Bribie Island National Park]]></name>
			<Point>
				<coordinates>153.126666666667,-26.8672222222222,0</coordinates>
			</Point>
			<Snippet></Snippet>
			<description><![CDATA[<br>Source: Wikipedia article <a href="http://en.wikipedia.org/wiki/Bribie_Island_National_Park">Bribie Island National Park</a>]]></description>
		</Placemark>
		<Placemark>
			<name><![CDATA[Brindabella National Park]]></name>
			<Point>
				<coordinates>148.778888888889,-35.2316666666667,0</coordinates>
			</Point>
			<Snippet></Snippet>
			<description><![CDATA[<br>Source: Wikipedia article <a href="http://en.wikipedia.org/wiki/Brindabella_National_Park">Brindabella National Park</a>]]></description>
		</Placemark>
		<Placemark>
			<name><![CDATA[Brisbane Ranges National Park]]></name>
			<Point>
				<coordinates>144.278611111111,-37.7952777777778,0</coordinates>
			</Point>
			<Snippet></Snippet>
			<description><![CDATA[<br>Source: Wikipedia article <a href="http://en.wikipedia.org/wiki/Brisbane_Ranges_National_Park">Brisbane Ranges National Park</a>]]></description>
		</Placemark>
		<Placemark>
			<name><![CDATA[Brisbane Water National Park]]></name>
			<Point>
				<coordinates>151.301111111111,-33.4569444444444,0</coordinates>
			</Point>
			<Snippet></Snippet>
			<description><![CDATA[<br>Source: Wikipedia article <a href="http://en.wikipedia.org/wiki/Brisbane_Water_National_Park">Brisbane Water National Park</a>]]></description>
		</Placemark>
		<Placemark>
			<name><![CDATA[Broad Sound Islands National Park]]></name>
			<Point>
				<coordinates>149.787222222222,-21.8136111111111,0</coordinates>
			</Point>
			<Snippet></Snippet>
			<description><![CDATA[<br>Source: Wikipedia article <a href="http://en.wikipedia.org/wiki/Broad_Sound_Islands_National_Park">Broad Sound Islands National Park</a>]]></description>
		</Placemark>
		<Placemark>
			<name><![CDATA[Broadwater National Park]]></name>
			<Point>
				<coordinates>153.41,-29.0538888888889,0</coordinates>
			</Point>
			<Snippet></Snippet>
			<description><![CDATA[<br>Source: Wikipedia article <a href="http://en.wikipedia.org/wiki/Broadwater_National_Park">Broadwater National Park</a>]]></description>
		</Placemark>
		<Placemark>
			<name><![CDATA[Brockman National Park]]></name>
			<Point>
				<coordinates>115.996111111111,-34.5144444444444,0</coordinates>
			</Point>
			<Snippet></Snippet>
			<description><![CDATA[<br>Source: Wikipedia article <a href="http://en.wikipedia.org/wiki/Brockman_National_Park">Brockman National Park</a>]]></description>
		</Placemark>
		<Placemark>
			<name><![CDATA[Bromley Rock Provincial Park]]></name>
			<Point>
				<coordinates>-120.2625,49.4161111111111,0</coordinates>
			</Point>
			<Snippet></Snippet>
			<description><![CDATA[<br>Source: Wikipedia article <a href="http://en.wikipedia.org/wiki/Bromley_Rock_Provincial_Park">Bromley Rock Provincial Park</a>]]></description>
		</Placemark>
		<Placemark>
			<name><![CDATA[Bromo Tengger Semeru National Park]]></name>
			<Point>
				<coordinates>112.916666666667,-8.01666666666667,0</coordinates>
			</Point>
			<Snippet></Snippet>
			<description><![CDATA[<br>Source: Wikipedia article <a href="http://en.wikipedia.org/wiki/Bromo_Tengger_Semeru_National_Park">Bromo Tengger Semeru National Park</a>]]></description>
		</Placemark>
		<Placemark>
			<name><![CDATA[Bronte Creek Provincial Park]]></name>
			<Point>
				<coordinates>-79.7666666666667,43.4138888888889,0</coordinates>
			</Point>
			<Snippet></Snippet>
			<description><![CDATA[<br>Source: Wikipedia article <a href="http://en.wikipedia.org/wiki/Bronte_Creek_Provincial_Park">Bronte Creek Provincial Park</a>]]></description>
		</Placemark>
		<Placemark>
			<name><![CDATA[Brook Islands National Park]]></name>
			<Point>
				<coordinates>146.282222222222,-18.1413888888889,0</coordinates>
			</Point>
			<Snippet></Snippet>
			<description><![CDATA[<br>Source: Wikipedia article <a href="http://en.wikipedia.org/wiki/Brook_Islands_National_Park">Brook Islands National Park</a>]]></description>
		</Placemark>
		<Placemark>
			<name><![CDATA[Broughton Island (New South Wales)]]></name>
			<Point>
				<coordinates>152.317222222222,-32.6158333333333,0</coordinates>
			</Point>
			<Snippet></Snippet>
			<description><![CDATA[<br>Source: Wikipedia article <a href="http://en.wikipedia.org/wiki/Broughton_Island_(New_South_Wales)">Broughton Island (New South Wales)</a>]]></description>
		</Placemark>
		<Placemark>
			<name><![CDATA[Bruce Peninsula National Park]]></name>
			<Point>
				<coordinates>-81.6141666666667,45.2388888888889,0</coordinates>
			</Point>
			<Snippet></Snippet>
			<description><![CDATA[<br>Source: Wikipedia article <a href="http://en.wikipedia.org/wiki/Bruce_Peninsula_National_Park">Bruce Peninsula National Park</a>]]></description>
		</Placemark>
		<Placemark>
			<name><![CDATA[Bryce Canyon National Park]]></name>
			<Point>
				<coordinates>-112.16766,37.6283,0</coordinates>
			</Point>
			<Snippet></Snippet>
			<description><![CDATA[<br>Source: Wikipedia article <a href="http://en.wikipedia.org/wiki/Bryce_Canyon_National_Park">Bryce Canyon National Park</a>]]></description>
		</Placemark>
		<Placemark>
			<name><![CDATA[Bu Gia Map National Park]]></name>
			<Point>
				<coordinates>107.15,12.2166666666667,0</coordinates>
			</Point>
			<Snippet></Snippet>
			<description><![CDATA[<br>Source: Wikipedia article <a href="http://en.wikipedia.org/wiki/Bu_Gia_Map_National_Park">Bu Gia Map National Park</a>]]></description>
		</Placemark>
		<Placemark>
			<name><![CDATA[Budderoo National Park]]></name>
			<Point>
				<coordinates>150.6575,-34.6663888888889,0</coordinates>
			</Point>
			<Snippet></Snippet>
			<description><![CDATA[<br>Source: Wikipedia article <a href="http://en.wikipedia.org/wiki/Budderoo_National_Park">Budderoo National Park</a>]]></description>
		</Placemark>
		<Placemark>
			<name><![CDATA[Budo – Su-ngai Padi National Park]]></name>
			<Point>
				<coordinates>101.63,6.467,0</coordinates>
			</Point>
			<Snippet></Snippet>
			<description><![CDATA[<br>Source: Wikipedia article <a href="http://en.wikipedia.org/wiki/Budo_–_Su-ngai_Padi_National_Park">Budo – Su-ngai Padi National Park</a>]]></description>
		</Placemark>
		<Placemark>
			<name><![CDATA[Buffalo Springs National Reserve]]></name>
			<Point>
				<coordinates>37.61737,0.521479,0</coordinates>
			</Point>
			<Snippet></Snippet>
			<description><![CDATA[<br>Source: Wikipedia article <a href="http://en.wikipedia.org/wiki/Buffalo_Springs_National_Reserve">Buffalo Springs National Reserve</a>]]></description>
		</Placemark>
		<Placemark>
			<name><![CDATA[Bui National Park]]></name>
			<Point>
				<coordinates>-2.36666666666667,8.3,0</coordinates>
			</Point>
			<Snippet></Snippet>
			<description><![CDATA[<br>Source: Wikipedia article <a href="http://en.wikipedia.org/wiki/Bui_National_Park">Bui National Park</a>]]></description>
		</Placemark>
		<Placemark>
			<name><![CDATA[Buila-Vânturarița National Park]]></name>
			<Point>
				<coordinates>24.096,45.24,0</coordinates>
			</Point>
			<Snippet></Snippet>
			<description><![CDATA[<br>Source: Wikipedia article <a href="http://en.wikipedia.org/wiki/Buila-Vânturarița_National_Park">Buila-Vânturarița National Park</a>]]></description>
		</Placemark>
		<Placemark>
			<name><![CDATA[Bukhansan National Park]]></name>
			<Point>
				<coordinates>126.982,37.675,0</coordinates>
			</Point>
			<Snippet></Snippet>
			<description><![CDATA[<br>Source: Wikipedia article <a href="http://en.wikipedia.org/wiki/Bukhansan_National_Park">Bukhansan National Park</a>]]></description>
		</Placemark>
		<Placemark>
			<name><![CDATA[Bukit Baka Bukit Raya National Park]]></name>
			<Point>
				<coordinates>112.616666666667,-0.783333333333333,0</coordinates>
			</Point>
			<Snippet></Snippet>
			<description><![CDATA[<br>Source: Wikipedia article <a href="http://en.wikipedia.org/wiki/Bukit_Baka_Bukit_Raya_National_Park">Bukit Baka Bukit Raya National Park</a>]]></description>
		</Placemark>
		<Placemark>
			<name><![CDATA[Bukit Barisan Selatan National Park]]></name>
			<Point>
				<coordinates>104.166666666667,-5.25,0</coordinates>
			</Point>
			<Snippet></Snippet>
			<description><![CDATA[<br>Source: Wikipedia article <a href="http://en.wikipedia.org/wiki/Bukit_Barisan_Selatan_National_Park">Bukit Barisan Selatan National Park</a>]]></description>
		</Placemark>
		<Placemark>
			<name><![CDATA[Bukit Duabelas National Park]]></name>
			<Point>
				<coordinates>102.65,-1.85,0</coordinates>
			</Point>
			<Snippet></Snippet>
			<description><![CDATA[<br>Source: Wikipedia article <a href="http://en.wikipedia.org/wiki/Bukit_Duabelas_National_Park">Bukit Duabelas National Park</a>]]></description>
		</Placemark>
		<Placemark>
			<name><![CDATA[Bukit Tigapuluh National Park]]></name>
			<Point>
				<coordinates>102.5,-1,0</coordinates>
			</Point>
			<Snippet></Snippet>
			<description><![CDATA[<br>Source: Wikipedia article <a href="http://en.wikipedia.org/wiki/Bukit_Tigapuluh_National_Park">Bukit Tigapuluh National Park</a>]]></description>
		</Placemark>
		<Placemark>
			<name><![CDATA[Bulabog Putian National Park]]></name>
			<Point>
				<coordinates>122.616666666667,11.0005,0</coordinates>
			</Point>
			<Snippet></Snippet>
			<description><![CDATA[<br>Source: Wikipedia article <a href="http://en.wikipedia.org/wiki/Bulabog_Putian_National_Park">Bulabog Putian National Park</a>]]></description>
		</Placemark>
		<Placemark>
			<name><![CDATA[Bulleringa National Park]]></name>
			<Point>
				<coordinates>143.829166666667,-17.5802777777778,0</coordinates>
			</Point>
			<Snippet></Snippet>
			<description><![CDATA[<br>Source: Wikipedia article <a href="http://en.wikipedia.org/wiki/Bulleringa_National_Park">Bulleringa National Park</a>]]></description>
		</Placemark>
		<Placemark>
			<name><![CDATA[Bunaken National Park]]></name>
			<Point>
				<coordinates>124.65,1.66666666666667,0</coordinates>
			</Point>
			<Snippet></Snippet>
			<description><![CDATA[<br>Source: Wikipedia article <a href="http://en.wikipedia.org/wiki/Bunaken_National_Park">Bunaken National Park</a>]]></description>
		</Placemark>
		<Placemark>
			<name><![CDATA[Bundala National Park]]></name>
			<Point>
				<coordinates>81.225,6.21388888888889,0</coordinates>
			</Point>
			<Snippet></Snippet>
			<description><![CDATA[<br>Source: Wikipedia article <a href="http://en.wikipedia.org/wiki/Bundala_National_Park">Bundala National Park</a>]]></description>
		</Placemark>
		<Placemark>
			<name><![CDATA[Bundjalung National Park]]></name>
			<Point>
				<coordinates>153.328611111111,-29.2475,0</coordinates>
			</Point>
			<Snippet></Snippet>
			<description><![CDATA[<br>Source: Wikipedia article <a href="http://en.wikipedia.org/wiki/Bundjalung_National_Park">Bundjalung National Park</a>]]></description>
		</Placemark>
		<Placemark>
			<name><![CDATA[Bungawalbin National Park]]></name>
			<Point>
				<coordinates>153.143888888889,-29.0980555555556,0</coordinates>
			</Point>
			<Snippet></Snippet>
			<description><![CDATA[<br>Source: Wikipedia article <a href="http://en.wikipedia.org/wiki/Bungawalbin_National_Park">Bungawalbin National Park</a>]]></description>
		</Placemark>
		<Placemark>
			<name><![CDATA[Bunurong Marine National Park]]></name>
			<Point>
				<coordinates>145.656,-38.691,0</coordinates>
			</Point>
			<Snippet></Snippet>
			<description><![CDATA[<br>Source: Wikipedia article <a href="http://en.wikipedia.org/wiki/Bunurong_Marine_National_Park">Bunurong Marine National Park</a>]]></description>
		</Placemark>
		<Placemark>
			<name><![CDATA[Bunya Mountains National Park]]></name>
			<Point>
				<coordinates>151.536944444444,-26.7994444444444,0</coordinates>
			</Point>
			<Snippet></Snippet>
			<description><![CDATA[<br>Source: Wikipedia article <a href="http://en.wikipedia.org/wiki/Bunya_Mountains_National_Park">Bunya Mountains National Park</a>]]></description>
		</Placemark>
		<Placemark>
			<name><![CDATA[Bunyip State Park]]></name>
			<Point>
				<coordinates>145.703333333333,-37.9702777777778,0</coordinates>
			</Point>
			<Snippet></Snippet>
			<description><![CDATA[<br>Source: Wikipedia article <a href="http://en.wikipedia.org/wiki/Bunyip_State_Park">Bunyip State Park</a>]]></description>
		</Placemark>
		<Placemark>
			<name><![CDATA[Burleigh Head National Park]]></name>
			<Point>
				<coordinates>153.457222222222,-28.0952777777778,0</coordinates>
			</Point>
			<Snippet></Snippet>
			<description><![CDATA[<br>Source: Wikipedia article <a href="http://en.wikipedia.org/wiki/Burleigh_Head_National_Park">Burleigh Head National Park</a>]]></description>
		</Placemark>
		<Placemark>
			<name><![CDATA[Burrowa-Pine Mountain National Park]]></name>
			<Point>
				<coordinates>147.758055555556,-36.09,0</coordinates>
			</Point>
			<Snippet></Snippet>
			<description><![CDATA[<br>Source: Wikipedia article <a href="http://en.wikipedia.org/wiki/Burrowa-Pine_Mountain_National_Park">Burrowa-Pine Mountain National Park</a>]]></description>
		</Placemark>
		<Placemark>
			<name><![CDATA[Burrum Coast National Park]]></name>
			<Point>
				<coordinates>152.4675,-24.9991666666667,0</coordinates>
			</Point>
			<Snippet></Snippet>
			<description><![CDATA[<br>Source: Wikipedia article <a href="http://en.wikipedia.org/wiki/Burrum_Coast_National_Park">Burrum Coast National Park</a>]]></description>
		</Placemark>
		<Placemark>
			<name><![CDATA[Butrint National Park]]></name>
			<Point>
				<coordinates>20.02076,39.74582,0</coordinates>
			</Point>
			<Snippet></Snippet>
			<description><![CDATA[<br>Source: Wikipedia article <a href="http://en.wikipedia.org/wiki/Butrint_National_Park">Butrint National Park</a>]]></description>
		</Placemark>
		<Placemark>
			<name><![CDATA[Butterleaf National Park]]></name>
			<Point>
				<coordinates>152.011944444444,-29.5188888888889,0</coordinates>
			</Point>
			<Snippet></Snippet>
			<description><![CDATA[<br>Source: Wikipedia article <a href="http://en.wikipedia.org/wiki/Butterleaf_National_Park">Butterleaf National Park</a>]]></description>
		</Placemark>
		<Placemark>
			<name><![CDATA[Buxa Tiger Reserve]]></name>
			<Point>
				<coordinates>89.58,26.65,0</coordinates>
			</Point>
			<Snippet></Snippet>
			<description><![CDATA[<br>Source: Wikipedia article <a href="http://en.wikipedia.org/wiki/Buxa_Tiger_Reserve">Buxa Tiger Reserve</a>]]></description>
		</Placemark>
		<Placemark>
			<name><![CDATA[Bwindi Impenetrable National Park]]></name>
			<Point>
				<coordinates>29.7166666666667,-1.05,0</coordinates>
			</Point>
			<Snippet></Snippet>
			<description><![CDATA[<br>Source: Wikipedia article <a href="http://en.wikipedia.org/wiki/Bwindi_Impenetrable_National_Park">Bwindi Impenetrable National Park</a>]]></description>
		</Placemark>
		<Placemark>
			<name><![CDATA[Byeonsan-bando National Park]]></name>
			<Point>
				<coordinates>126.586,35.644,0</coordinates>
			</Point>
			<Snippet></Snippet>
			<description><![CDATA[<br>Source: Wikipedia article <a href="http://en.wikipedia.org/wiki/Byeonsan-bando_National_Park">Byeonsan-bando National Park</a>]]></description>
		</Placemark>
		<Placemark>
			<name><![CDATA[Byfield National Park]]></name>
			<Point>
				<coordinates>150.731666666667,-22.7838888888889,0</coordinates>
			</Point>
			<Snippet></Snippet>
			<description><![CDATA[<br>Source: Wikipedia article <a href="http://en.wikipedia.org/wiki/Byfield_National_Park">Byfield National Park</a>]]></description>
		</Placemark>
		<Placemark>
			<name><![CDATA[Bénoué National Park]]></name>
			<Point>
				<coordinates>13.8333333333333,8.33333333333333,0</coordinates>
			</Point>
			<Snippet></Snippet>
			<description><![CDATA[<br>Source: Wikipedia article <a href="http://en.wikipedia.org/wiki/Bénoué_National_Park">Bénoué National Park</a>]]></description>
		</Placemark>
		<Placemark>
			<name><![CDATA[Børgefjell National Park]]></name>
			<Point>
				<coordinates>13.9,65.1833333333333,0</coordinates>
			</Point>
			<Snippet></Snippet>
			<description><![CDATA[<br>Source: Wikipedia article <a href="http://en.wikipedia.org/wiki/Børgefjell_National_Park">Børgefjell National Park</a>]]></description>
		</Placemark>
		<Placemark>
			<name><![CDATA[Bükk National Park]]></name>
			<Point>
				<coordinates>20.528,48.048,0</coordinates>
			</Point>
			<Snippet></Snippet>
			<description><![CDATA[<br>Source: Wikipedia article <a href="http://en.wikipedia.org/wiki/Bükk_National_Park">Bükk National Park</a>]]></description>
		</Placemark>
		<Placemark>
			<name><![CDATA[Cabañeros National Park]]></name>
			<Point>
				<coordinates>-4.48722222222222,39.3963888888889,0</coordinates>
			</Point>
			<Snippet></Snippet>
			<description><![CDATA[<br>Source: Wikipedia article <a href="http://en.wikipedia.org/wiki/Cabañeros_National_Park">Cabañeros National Park</a>]]></description>
		</Placemark>
		<Placemark>
			<name><![CDATA[Cabo Pulmo National Park]]></name>
			<Point>
				<coordinates>-109.666944444444,23.6602777777778,0</coordinates>
			</Point>
			<Snippet></Snippet>
			<description><![CDATA[<br>Source: Wikipedia article <a href="http://en.wikipedia.org/wiki/Cabo_Pulmo_National_Park">Cabo Pulmo National Park</a>]]></description>
		</Placemark>
		<Placemark>
			<name><![CDATA[Cabo de Hornos National Park]]></name>
			<Point>
				<coordinates>-67.433,-55.833,0</coordinates>
			</Point>
			<Snippet></Snippet>
			<description><![CDATA[<br>Source: Wikipedia article <a href="http://en.wikipedia.org/wiki/Cabo_de_Hornos_National_Park">Cabo de Hornos National Park</a>]]></description>
		</Placemark>
		<Placemark>
			<name><![CDATA[Caguanes National Park]]></name>
			<Point>
				<coordinates>-79.1291666666667,22.3797222222222,0</coordinates>
			</Point>
			<Snippet></Snippet>
			<description><![CDATA[<br>Source: Wikipedia article <a href="http://en.wikipedia.org/wiki/Caguanes_National_Park">Caguanes National Park</a>]]></description>
		</Placemark>
		<Placemark>
			<name><![CDATA[Cahuita National Park]]></name>
			<Point>
				<coordinates>-82.825,9.72916666666667,0</coordinates>
			</Point>
			<Snippet></Snippet>
			<description><![CDATA[<br>Source: Wikipedia article <a href="http://en.wikipedia.org/wiki/Cahuita_National_Park">Cahuita National Park</a>]]></description>
		</Placemark>
		<Placemark>
			<name><![CDATA[Caldera de Taburiente National Park]]></name>
			<Point>
				<coordinates>-17.8666666666667,28.7166666666667,0</coordinates>
			</Point>
			<Snippet></Snippet>
			<description><![CDATA[<br>Source: Wikipedia article <a href="http://en.wikipedia.org/wiki/Caldera_de_Taburiente_National_Park">Caldera de Taburiente National Park</a>]]></description>
		</Placemark>
		<Placemark>
			<name><![CDATA[Calilegua National Park]]></name>
			<Point>
				<coordinates>-64.7833333333333,-23.65,0</coordinates>
			</Point>
			<Snippet></Snippet>
			<description><![CDATA[<br>Source: Wikipedia article <a href="http://en.wikipedia.org/wiki/Calilegua_National_Park">Calilegua National Park</a>]]></description>
		</Placemark>
		<Placemark>
			<name><![CDATA[Calipuy National Reservation]]></name>
			<Point>
				<coordinates>-78.325,-8.569,0</coordinates>
			</Point>
			<Snippet></Snippet>
			<description><![CDATA[<br>Source: Wikipedia article <a href="http://en.wikipedia.org/wiki/Calipuy_National_Reservation">Calipuy National Reservation</a>]]></description>
		</Placemark>
		<Placemark>
			<name><![CDATA[Camdeboo National Park]]></name>
			<Point>
				<coordinates>24.5,-32.25,0</coordinates>
			</Point>
			<Snippet></Snippet>
			<description><![CDATA[<br>Source: Wikipedia article <a href="http://en.wikipedia.org/wiki/Camdeboo_National_Park">Camdeboo National Park</a>]]></description>
		</Placemark>
		<Placemark>
			<name><![CDATA[Campo Ma'an National Park]]></name>
			<Point>
				<coordinates>9.99123,2.34529,0</coordinates>
			</Point>
			<Snippet></Snippet>
			<description><![CDATA[<br>Source: Wikipedia article <a href="http://en.wikipedia.org/wiki/Campo_Ma'an_National_Park">Campo Ma'an National Park</a>]]></description>
		</Placemark>
		<Placemark>
			<name><![CDATA[Campo de los Alisos National Park]]></name>
			<Point>
				<coordinates>-65.9666666666667,-27.2166666666667,0</coordinates>
			</Point>
			<Snippet></Snippet>
			<description><![CDATA[<br>Source: Wikipedia article <a href="http://en.wikipedia.org/wiki/Campo_de_los_Alisos_National_Park">Campo de los Alisos National Park</a>]]></description>
		</Placemark>
		<Placemark>
			<name><![CDATA[Campos del Tuyú National Park]]></name>
			<Point>
				<coordinates>-56.8333333333333,-36.2833333333333,0</coordinates>
			</Point>
			<Snippet></Snippet>
			<description><![CDATA[<br>Source: Wikipedia article <a href="http://en.wikipedia.org/wiki/Campos_del_Tuyú_National_Park">Campos del Tuyú National Park</a>]]></description>
		</Placemark>
		<Placemark>
			<name><![CDATA[Canaima National Park]]></name>
			<Point>
				<coordinates>-62.5,6.16666666666667,0</coordinates>
			</Point>
			<Snippet></Snippet>
			<description><![CDATA[<br>Source: Wikipedia article <a href="http://en.wikipedia.org/wiki/Canaima_National_Park">Canaima National Park</a>]]></description>
		</Placemark>
		<Placemark>
			<name><![CDATA[Cania Gorge National Park]]></name>
			<Point>
				<coordinates>150.989444444444,-24.66,0</coordinates>
			</Point>
			<Snippet></Snippet>
			<description><![CDATA[<br>Source: Wikipedia article <a href="http://en.wikipedia.org/wiki/Cania_Gorge_National_Park">Cania Gorge National Park</a>]]></description>
		</Placemark>
		<Placemark>
			<name><![CDATA[Canunda National Park]]></name>
			<Point>
				<coordinates>140.283055555556,-37.7155555555556,0</coordinates>
			</Point>
			<Snippet></Snippet>
			<description><![CDATA[<br>Source: Wikipedia article <a href="http://en.wikipedia.org/wiki/Canunda_National_Park">Canunda National Park</a>]]></description>
		</Placemark>
		<Placemark>
			<name><![CDATA[Canyonlands National Park]]></name>
			<Point>
				<coordinates>-109.75966,38.16691,0</coordinates>
			</Point>
			<Snippet></Snippet>
			<description><![CDATA[<br>Source: Wikipedia article <a href="http://en.wikipedia.org/wiki/Canyonlands_National_Park">Canyonlands National Park</a>]]></description>
		</Placemark>
		<Placemark>
			<name><![CDATA[Cape Arid National Park]]></name>
			<Point>
				<coordinates>123.369444444444,-33.7038888888889,0</coordinates>
			</Point>
			<Snippet></Snippet>
			<description><![CDATA[<br>Source: Wikipedia article <a href="http://en.wikipedia.org/wiki/Cape_Arid_National_Park">Cape Arid National Park</a>]]></description>
		</Placemark>
		<Placemark>
			<name><![CDATA[Cape Breton Highlands National Park]]></name>
			<Point>
				<coordinates>-60.6597222222222,46.7166666666667,0</coordinates>
			</Point>
			<Snippet></Snippet>
			<description><![CDATA[<br>Source: Wikipedia article <a href="http://en.wikipedia.org/wiki/Cape_Breton_Highlands_National_Park">Cape Breton Highlands National Park</a>]]></description>
		</Placemark>
		<Placemark>
			<name><![CDATA[Cape Ca Mau National Park]]></name>
			<Point>
				<coordinates>104.791666666667,8.675,0</coordinates>
			</Point>
			<Snippet></Snippet>
			<description><![CDATA[<br>Source: Wikipedia article <a href="http://en.wikipedia.org/wiki/Cape_Ca_Mau_National_Park">Cape Ca Mau National Park</a>]]></description>
		</Placemark>
		<Placemark>
			<name><![CDATA[Cape Chignecto Provincial Park]]></name>
			<Point>
				<coordinates>-64.8251388888889,45.3502777777778,0</coordinates>
			</Point>
			<Snippet></Snippet>
			<description><![CDATA[<br>Source: Wikipedia article <a href="http://en.wikipedia.org/wiki/Cape_Chignecto_Provincial_Park">Cape Chignecto Provincial Park</a>]]></description>
		</Placemark>
		<Placemark>
			<name><![CDATA[Cape Hillsborough National Park]]></name>
			<Point>
				<coordinates>148.993611111111,-20.8988888888889,0</coordinates>
			</Point>
			<Snippet></Snippet>
			<description><![CDATA[<br>Source: Wikipedia article <a href="http://en.wikipedia.org/wiki/Cape_Hillsborough_National_Park">Cape Hillsborough National Park</a>]]></description>
		</Placemark>
		<Placemark>
			<name><![CDATA[Cape Howe Marine National Park]]></name>
			<Point>
				<coordinates>149.95,-37.5333333333333,0</coordinates>
			</Point>
			<Snippet></Snippet>
			<description><![CDATA[<br>Source: Wikipedia article <a href="http://en.wikipedia.org/wiki/Cape_Howe_Marine_National_Park">Cape Howe Marine National Park</a>]]></description>
		</Placemark>
		<Placemark>
			<name><![CDATA[Cape Le Grand National Park]]></name>
			<Point>
				<coordinates>122.155555555556,-33.9469444444444,0</coordinates>
			</Point>
			<Snippet></Snippet>
			<description><![CDATA[<br>Source: Wikipedia article <a href="http://en.wikipedia.org/wiki/Cape_Le_Grand_National_Park">Cape Le Grand National Park</a>]]></description>
		</Placemark>
		<Placemark>
			<name><![CDATA[Cape Melville National Park]]></name>
			<Point>
				<coordinates>144.515833333333,-14.2763888888889,0</coordinates>
			</Point>
			<Snippet></Snippet>
			<description><![CDATA[<br>Source: Wikipedia article <a href="http://en.wikipedia.org/wiki/Cape_Melville_National_Park">Cape Melville National Park</a>]]></description>
		</Placemark>
		<Placemark>
			<name><![CDATA[Cape Mount Nature Conservation Unit]]></name>
			<Point>
				<coordinates>-11.37337442,6.80663518,0</coordinates>
			</Point>
			<Snippet></Snippet>
			<description><![CDATA[<br>Source: Wikipedia article <a href="http://en.wikipedia.org/wiki/Cape_Mount_Nature_Conservation_Unit">Cape Mount Nature Conservation Unit</a>]]></description>
		</Placemark>
		<Placemark>
			<name><![CDATA[Cape Palmerston National Park]]></name>
			<Point>
				<coordinates>149.4275,-21.5902777777778,0</coordinates>
			</Point>
			<Snippet></Snippet>
			<description><![CDATA[<br>Source: Wikipedia article <a href="http://en.wikipedia.org/wiki/Cape_Palmerston_National_Park">Cape Palmerston National Park</a>]]></description>
		</Placemark>
		<Placemark>
			<name><![CDATA[Cape Range National Park]]></name>
			<Point>
				<coordinates>113.920555555556,-22.1233333333333,0</coordinates>
			</Point>
			<Snippet></Snippet>
			<description><![CDATA[<br>Source: Wikipedia article <a href="http://en.wikipedia.org/wiki/Cape_Range_National_Park">Cape Range National Park</a>]]></description>
		</Placemark>