<?xml version="1.0" encoding="UTF-8"?>
<kml xmlns="http://earth.google.com/kml/2.1">
<Document>
	<name><![CDATA[Category:IUCN Category Ia]]></name>
	<open>1</open>
		<Placemark>
			<name><![CDATA[Aigle-à-Tête-Blanche Ecological Reserve]]></name>
			<Point>
				<coordinates>-77.6764,46.2083,0</coordinates>
			</Point>
			<Snippet></Snippet>
			<description><![CDATA[<br>Source: Wikipedia article <a href="http://en.wikipedia.org/wiki/Aigle-à-Tête-Blanche_Ecological_Reserve">Aigle-à-Tête-Blanche Ecological Reserve</a>]]></description>
		</Placemark>
		<Placemark>
			<name><![CDATA[Alexander Stewart Provincial Park]]></name>
			<Point>
				<coordinates>-76.4988888888889,45.4302777777778,0</coordinates>
			</Point>
			<Snippet></Snippet>
			<description><![CDATA[<br>Source: Wikipedia article <a href="http://en.wikipedia.org/wiki/Alexander_Stewart_Provincial_Park">Alexander Stewart Provincial Park</a>]]></description>
		</Placemark>
		<Placemark>
			<name><![CDATA[Alice Glockner Nature Reserve]]></name>
			<Point>
				<coordinates>28.369,-26.567,0</coordinates>
			</Point>
			<Snippet></Snippet>
			<description><![CDATA[<br>Source: Wikipedia article <a href="http://en.wikipedia.org/wiki/Alice_Glockner_Nature_Reserve">Alice Glockner Nature Reserve</a>]]></description>
		</Placemark>
		<Placemark>
			<name><![CDATA[Alto Bío Bío National Reserve]]></name>
			<Point>
				<coordinates>-70.965,-38.624,0</coordinates>
			</Point>
			<Snippet></Snippet>
			<description><![CDATA[<br>Source: Wikipedia article <a href="http://en.wikipedia.org/wiki/Alto_Bío_Bío_National_Reserve">Alto Bío Bío National Reserve</a>]]></description>
		</Placemark>
		<Placemark>
			<name><![CDATA[André-Linteau Ecological Reserve]]></name>
			<Point>
				<coordinates>-77.7764,46.2106,0</coordinates>
			</Point>
			<Snippet></Snippet>
			<description><![CDATA[<br>Source: Wikipedia article <a href="http://en.wikipedia.org/wiki/André-Linteau_Ecological_Reserve">André-Linteau Ecological Reserve</a>]]></description>
		</Placemark>
		<Placemark>
			<name><![CDATA[André-Michaux Ecological Reserve]]></name>
			<Point>
				<coordinates>-75.8875,45.8333,0</coordinates>
			</Point>
			<Snippet></Snippet>
			<description><![CDATA[<br>Source: Wikipedia article <a href="http://en.wikipedia.org/wiki/André-Michaux_Ecological_Reserve">André-Michaux Ecological Reserve</a>]]></description>
		</Placemark>
		<Placemark>
			<name><![CDATA[Apoyo Lagoon Natural Reserve]]></name>
			<Point>
				<coordinates>-86.029,11.922,0</coordinates>
			</Point>
			<Snippet></Snippet>
			<description><![CDATA[<br>Source: Wikipedia article <a href="http://en.wikipedia.org/wiki/Apoyo_Lagoon_Natural_Reserve">Apoyo Lagoon Natural Reserve</a>]]></description>
		</Placemark>
		<Placemark>
			<name><![CDATA[Astrakhan Nature Reserve]]></name>
			<Point>
				<coordinates>48.52,45.995,0</coordinates>
			</Point>
			<Snippet></Snippet>
			<description><![CDATA[<br>Source: Wikipedia article <a href="http://en.wikipedia.org/wiki/Astrakhan_Nature_Reserve">Astrakhan Nature Reserve</a>]]></description>
		</Placemark>
		<Placemark>
			<name><![CDATA[Aïr and Ténéré Addax Sanctuary]]></name>
			<Point>
				<coordinates>9.50361111111111,19.4844444444444,0</coordinates>
			</Point>
			<Snippet></Snippet>
			<description><![CDATA[<br>Source: Wikipedia article <a href="http://en.wikipedia.org/wiki/Aïr_and_Ténéré_Addax_Sanctuary">Aïr and Ténéré Addax Sanctuary</a>]]></description>
		</Placemark>
		<Placemark>
			<name><![CDATA[Barguzin Nature Reserve]]></name>
			<Point>
				<coordinates>109.833333333333,54.5,0</coordinates>
			</Point>
			<Snippet></Snippet>
			<description><![CDATA[<br>Source: Wikipedia article <a href="http://en.wikipedia.org/wiki/Barguzin_Nature_Reserve">Barguzin Nature Reserve</a>]]></description>
		</Placemark>
		<Placemark>
			<name><![CDATA[Barren Grounds Nature Reserve]]></name>
			<Point>
				<coordinates>150.716667,-34.683333,0</coordinates>
			</Point>
			<Snippet></Snippet>
			<description><![CDATA[<br>Source: Wikipedia article <a href="http://en.wikipedia.org/wiki/Barren_Grounds_Nature_Reserve">Barren Grounds Nature Reserve</a>]]></description>
		</Placemark>
		<Placemark>
			<name><![CDATA[Barsa-Kelmes Nature Reserve]]></name>
			<Point>
				<coordinates>59.9083333333333,45.6352777777778,0</coordinates>
			</Point>
			<Snippet></Snippet>
			<description><![CDATA[<br>Source: Wikipedia article <a href="http://en.wikipedia.org/wiki/Barsa-Kelmes_Nature_Reserve">Barsa-Kelmes Nature Reserve</a>]]></description>
		</Placemark>
		<Placemark>
			<name><![CDATA[Basegi Nature Reserve]]></name>
			<Point>
				<coordinates>58.03,58.05,0</coordinates>
			</Point>
			<Snippet></Snippet>
			<description><![CDATA[<br>Source: Wikipedia article <a href="http://en.wikipedia.org/wiki/Basegi_Nature_Reserve">Basegi Nature Reserve</a>]]></description>
		</Placemark>
		<Placemark>
			<name><![CDATA[Baviaanskloof Mega Reserve]]></name>
			<Point>
				<coordinates>24.1333333333333,-33.5,0</coordinates>
			</Point>
			<Snippet></Snippet>
			<description><![CDATA[<br>Source: Wikipedia article <a href="http://en.wikipedia.org/wiki/Baviaanskloof_Mega_Reserve">Baviaanskloof Mega Reserve</a>]]></description>
		</Placemark>
		<Placemark>
			<name><![CDATA[Ben Halls Gap National Park]]></name>
			<Point>
				<coordinates>151.185,-31.6197222222222,0</coordinates>
			</Point>
			<Snippet></Snippet>
			<description><![CDATA[<br>Source: Wikipedia article <a href="http://en.wikipedia.org/wiki/Ben_Halls_Gap_National_Park">Ben Halls Gap National Park</a>]]></description>
		</Placemark>
		<Placemark>
			<name><![CDATA[Betampona Reserve]]></name>
			<Point>
				<coordinates>49.225,-17.8883333333333,0</coordinates>
			</Point>
			<Snippet></Snippet>
			<description><![CDATA[<br>Source: Wikipedia article <a href="http://en.wikipedia.org/wiki/Betampona_Reserve">Betampona Reserve</a>]]></description>
		</Placemark>
		<Placemark>
			<name><![CDATA[Billiatt Conservation Park]]></name>
			<Point>
				<coordinates>140.481111111111,-34.9888888888889,0</coordinates>
			</Point>
			<Snippet></Snippet>
			<description><![CDATA[<br>Source: Wikipedia article <a href="http://en.wikipedia.org/wiki/Billiatt_Conservation_Park">Billiatt Conservation Park</a>]]></description>
		</Placemark>
		<Placemark>
			<name><![CDATA[Billiatt Conservation Park]]></name>
			<Point>
				<coordinates>140.566666666667,-34.9166666666667,0</coordinates>
			</Point>
			<Snippet></Snippet>
			<description><![CDATA[<br>Source: Wikipedia article <a href="http://en.wikipedia.org/wiki/Billiatt_Conservation_Park">Billiatt Conservation Park</a>]]></description>
		</Placemark>
		<Placemark>
			<name><![CDATA[Bimberi Nature Reserve]]></name>
			<Point>
				<coordinates>148.751111,-35.581667,0</coordinates>
			</Point>
			<Snippet></Snippet>
			<description><![CDATA[<br>Source: Wikipedia article <a href="http://en.wikipedia.org/wiki/Bimberi_Nature_Reserve">Bimberi Nature Reserve</a>]]></description>
		</Placemark>
		<Placemark>
			<name><![CDATA[Black Andrew Nature Reserve]]></name>
			<Point>
				<coordinates>148.5859,-35.0428,0</coordinates>
			</Point>
			<Snippet></Snippet>
			<description><![CDATA[<br>Source: Wikipedia article <a href="http://en.wikipedia.org/wiki/Black_Andrew_Nature_Reserve">Black Andrew Nature Reserve</a>]]></description>
		</Placemark>
		<Placemark>
			<name><![CDATA[Black Creek Nature Sanctuary]]></name>
			<Point>
				<coordinates>-88.46507,47.33123,0</coordinates>
			</Point>
			<Snippet></Snippet>
			<description><![CDATA[<br>Source: Wikipedia article <a href="http://en.wikipedia.org/wiki/Black_Creek_Nature_Sanctuary">Black Creek Nature Sanctuary</a>]]></description>
		</Placemark>
		<Placemark>
			<name><![CDATA[Black Rock Forest]]></name>
			<Point>
				<coordinates>-74.0216666666667,41.4080555555556,0</coordinates>
			</Point>
			<Snippet></Snippet>
			<description><![CDATA[<br>Source: Wikipedia article <a href="http://en.wikipedia.org/wiki/Black_Rock_Forest">Black Rock Forest</a>]]></description>
		</Placemark>
		<Placemark>
			<name><![CDATA[Black Rock Forest]]></name>
			<Point>
				<coordinates>-74.0211111111111,41.3908333333333,0</coordinates>
			</Point>
			<Snippet></Snippet>
			<description><![CDATA[<br>Source: Wikipedia article <a href="http://en.wikipedia.org/wiki/Black_Rock_Forest">Black Rock Forest</a>]]></description>
		</Placemark>
		<Placemark>
			<name><![CDATA[Black Rock Forest]]></name>
			<Point>
				<coordinates>-74.0275,41.4202777777778,0</coordinates>
			</Point>
			<Snippet></Snippet>
			<description><![CDATA[<br>Source: Wikipedia article <a href="http://en.wikipedia.org/wiki/Black_Rock_Forest">Black Rock Forest</a>]]></description>
		</Placemark>
		<Placemark>
			<name><![CDATA[Black Rock Forest]]></name>
			<Point>
				<coordinates>-74.02,41.4208333333333,0</coordinates>
			</Point>
			<Snippet></Snippet>
			<description><![CDATA[<br>Source: Wikipedia article <a href="http://en.wikipedia.org/wiki/Black_Rock_Forest">Black Rock Forest</a>]]></description>
		</Placemark>
		<Placemark>
			<name><![CDATA[Bladen Nature Reserve]]></name>
			<Point>
				<coordinates>-88.886,16.491,0</coordinates>
			</Point>
			<Snippet></Snippet>
			<description><![CDATA[<br>Source: Wikipedia article <a href="http://en.wikipedia.org/wiki/Bladen_Nature_Reserve">Bladen Nature Reserve</a>]]></description>
		</Placemark>
		<Placemark>
			<name><![CDATA[Bog-à-Lanières Ecological Reserve]]></name>
			<Point>
				<coordinates>-72.2492,47.5928,0</coordinates>
			</Point>
			<Snippet></Snippet>
			<description><![CDATA[<br>Source: Wikipedia article <a href="http://en.wikipedia.org/wiki/Bog-à-Lanières_Ecological_Reserve">Bog-à-Lanières Ecological Reserve</a>]]></description>
		</Placemark>
		<Placemark>
			<name><![CDATA[Boggs Lake Ecological Reserve]]></name>
			<Point>
				<coordinates>-122.776666666667,38.8866666666667,0</coordinates>
			</Point>
			<Snippet></Snippet>
			<description><![CDATA[<br>Source: Wikipedia article <a href="http://en.wikipedia.org/wiki/Boggs_Lake_Ecological_Reserve">Boggs Lake Ecological Reserve</a>]]></description>
		</Placemark>
		<Placemark>
			<name><![CDATA[Boheman Bird Sanctuary]]></name>
			<Point>
				<coordinates>14.6116666666667,78.3716666666667,0</coordinates>
			</Point>
			<Snippet></Snippet>
			<description><![CDATA[<br>Source: Wikipedia article <a href="http://en.wikipedia.org/wiki/Boheman_Bird_Sanctuary">Boheman Bird Sanctuary</a>]]></description>
		</Placemark>
		<Placemark>
			<name><![CDATA[Boisé-des-Muir Ecological Reserve]]></name>
			<Point>
				<coordinates>-74.1167,45.0847,0</coordinates>
			</Point>
			<Snippet></Snippet>
			<description><![CDATA[<br>Source: Wikipedia article <a href="http://en.wikipedia.org/wiki/Boisé-des-Muir_Ecological_Reserve">Boisé-des-Muir Ecological Reserve</a>]]></description>
		</Placemark>
		<Placemark>
			<name><![CDATA[Bolshaya Kokshaga (nature reserve)]]></name>
			<Point>
				<coordinates>47.2725,56.6763888888889,0</coordinates>
			</Point>
			<Snippet></Snippet>
			<description><![CDATA[<br>Source: Wikipedia article <a href="http://en.wikipedia.org/wiki/Bolshaya_Kokshaga_(nature_reserve)">Bolshaya Kokshaga (nature reserve)</a>]]></description>
		</Placemark>
		<Placemark>
			<name><![CDATA[Bonheur River Kame Provincial Park]]></name>
			<Point>
				<coordinates>-91.2336111111111,49.3994444444444,0</coordinates>
			</Point>
			<Snippet></Snippet>
			<description><![CDATA[<br>Source: Wikipedia article <a href="http://en.wikipedia.org/wiki/Bonheur_River_Kame_Provincial_Park">Bonheur River Kame Provincial Park</a>]]></description>
		</Placemark>
		<Placemark>
			<name><![CDATA[Bonny Doon Ecological Reserve]]></name>
			<Point>
				<coordinates>-122.251388888889,37.0711111111111,0</coordinates>
			</Point>
			<Snippet></Snippet>
			<description><![CDATA[<br>Source: Wikipedia article <a href="http://en.wikipedia.org/wiki/Bonny_Doon_Ecological_Reserve">Bonny Doon Ecological Reserve</a>]]></description>
		</Placemark>
		<Placemark>
			<name><![CDATA[Boondelbah Island]]></name>
			<Point>
				<coordinates>152.234444444444,-32.715,0</coordinates>
			</Point>
			<Snippet></Snippet>
			<description><![CDATA[<br>Source: Wikipedia article <a href="http://en.wikipedia.org/wiki/Boondelbah_Island">Boondelbah Island</a>]]></description>
		</Placemark>
		<Placemark>
			<name><![CDATA[Broulee Island Nature Reserve]]></name>
			<Point>
				<coordinates>150.1884,-35.8578,0</coordinates>
			</Point>
			<Snippet></Snippet>
			<description><![CDATA[<br>Source: Wikipedia article <a href="http://en.wikipedia.org/wiki/Broulee_Island_Nature_Reserve">Broulee Island Nature Reserve</a>]]></description>
		</Placemark>
		<Placemark>
			<name><![CDATA[Burdon Canal Nature Reserve]]></name>
			<Point>
				<coordinates>-88.262,17.496,0</coordinates>
			</Point>
			<Snippet></Snippet>
			<description><![CDATA[<br>Source: Wikipedia article <a href="http://en.wikipedia.org/wiki/Burdon_Canal_Nature_Reserve">Burdon Canal Nature Reserve</a>]]></description>
		</Placemark>
		<Placemark>
			<name><![CDATA[Burnt Cape Ecological Reserve]]></name>
			<Point>
				<coordinates>-55.7458333333333,51.5730555555556,0</coordinates>
			</Point>
			<Snippet></Snippet>
			<description><![CDATA[<br>Source: Wikipedia article <a href="http://en.wikipedia.org/wiki/Burnt_Cape_Ecological_Reserve">Burnt Cape Ecological Reserve</a>]]></description>
		</Placemark>
		<Placemark>
			<name><![CDATA[Burrinjuck Nature Reserve]]></name>
			<Point>
				<coordinates>148.5894,-34.9576,0</coordinates>
			</Point>
			<Snippet></Snippet>
			<description><![CDATA[<br>Source: Wikipedia article <a href="http://en.wikipedia.org/wiki/Burrinjuck_Nature_Reserve">Burrinjuck Nature Reserve</a>]]></description>
		</Placemark>
		<Placemark>
			<name><![CDATA[Butte Creek Ecological Reserve]]></name>
			<Point>
				<coordinates>-121.415833333333,40.0877777777778,0</coordinates>
			</Point>
			<Snippet></Snippet>
			<description><![CDATA[<br>Source: Wikipedia article <a href="http://en.wikipedia.org/wiki/Butte_Creek_Ecological_Reserve">Butte Creek Ecological Reserve</a>]]></description>
		</Placemark>
		<Placemark>
			<name><![CDATA[Cabbage Tree Island]]></name>
			<Point>
				<coordinates>152.234444444444,-32.6816666666667,0</coordinates>
			</Point>
			<Snippet></Snippet>
			<description><![CDATA[<br>Source: Wikipedia article <a href="http://en.wikipedia.org/wiki/Cabbage_Tree_Island">Cabbage Tree Island</a>]]></description>
		</Placemark>
		<Placemark>
			<name><![CDATA[Canebrake Ecological Reserve]]></name>
			<Point>
				<coordinates>-118.173888888889,35.7277777777778,0</coordinates>
			</Point>
			<Snippet></Snippet>
			<description><![CDATA[<br>Source: Wikipedia article <a href="http://en.wikipedia.org/wiki/Canebrake_Ecological_Reserve">Canebrake Ecological Reserve</a>]]></description>
		</Placemark>
		<Placemark>
			<name><![CDATA[Cape Gantheaume Conservation Park]]></name>
			<Point>
				<coordinates>137.420277777778,-35.9180555555556,0</coordinates>
			</Point>
			<Snippet></Snippet>
			<description><![CDATA[<br>Source: Wikipedia article <a href="http://en.wikipedia.org/wiki/Cape_Gantheaume_Conservation_Park">Cape Gantheaume Conservation Park</a>]]></description>
		</Placemark>
		<Placemark>
			<name><![CDATA[Cape Rodney-Okakari Point Marine Reserve]]></name>
			<Point>
				<coordinates>174.7978878,-36.2652449,0</coordinates>
			</Point>
			<Snippet></Snippet>
			<description><![CDATA[<br>Source: Wikipedia article <a href="http://en.wikipedia.org/wiki/Cape_Rodney-Okakari_Point_Marine_Reserve">Cape Rodney-Okakari Point Marine Reserve</a>]]></description>
		</Placemark>
		<Placemark>
			<name><![CDATA[Cape St. Mary's Ecological Reserve]]></name>
			<Point>
				<coordinates>-54.1658333333333,46.8319444444444,0</coordinates>
			</Point>
			<Snippet></Snippet>
			<description><![CDATA[<br>Source: Wikipedia article <a href="http://en.wikipedia.org/wiki/Cape_St._Mary's_Ecological_Reserve">Cape St. Mary's Ecological Reserve</a>]]></description>
		</Placemark>
		<Placemark>
			<name><![CDATA[Caribous-de-Jourdan Ecological Reserve]]></name>
			<Point>
				<coordinates>-77.8944,47.7944,0</coordinates>
			</Point>
			<Snippet></Snippet>
			<description><![CDATA[<br>Source: Wikipedia article <a href="http://en.wikipedia.org/wiki/Caribous-de-Jourdan_Ecological_Reserve">Caribous-de-Jourdan Ecological Reserve</a>]]></description>
		</Placemark>
		<Placemark>
			<name><![CDATA[Castlereagh Nature Reserve]]></name>
			<Point>
				<coordinates>150.7561,-33.6815,0</coordinates>
			</Point>
			<Snippet></Snippet>
			<description><![CDATA[<br>Source: Wikipedia article <a href="http://en.wikipedia.org/wiki/Castlereagh_Nature_Reserve">Castlereagh Nature Reserve</a>]]></description>
		</Placemark>
		<Placemark>
			<name><![CDATA[Charles-B.-Banville Ecological Reserve]]></name>
			<Point>
				<coordinates>-68.1417,48.2125,0</coordinates>
			</Point>
			<Snippet></Snippet>
			<description><![CDATA[<br>Source: Wikipedia article <a href="http://en.wikipedia.org/wiki/Charles-B.-Banville_Ecological_Reserve">Charles-B.-Banville Ecological Reserve</a>]]></description>
		</Placemark>
		<Placemark>
			<name><![CDATA[Chicobi Ecological Reserve]]></name>
			<Point>
				<coordinates>-78.5711,48.8472,0</coordinates>
			</Point>
			<Snippet></Snippet>
			<description><![CDATA[<br>Source: Wikipedia article <a href="http://en.wikipedia.org/wiki/Chicobi_Ecological_Reserve">Chicobi Ecological Reserve</a>]]></description>
		</Placemark>
		<Placemark>
			<name><![CDATA[Chênaie-des-Îles-Finlay Ecological Reserve]]></name>
			<Point>
				<coordinates>-76.8747,45.9014,0</coordinates>
			</Point>
			<Snippet></Snippet>
			<description><![CDATA[<br>Source: Wikipedia article <a href="http://en.wikipedia.org/wiki/Chênaie-des-Îles-Finlay_Ecological_Reserve">Chênaie-des-Îles-Finlay Ecological Reserve</a>]]></description>
		</Placemark>
		<Placemark>
			<name><![CDATA[Claude-Mélançon Ecological Reserve]]></name>
			<Point>
				<coordinates>-70.4389,46.6069,0</coordinates>
			</Point>
			<Snippet></Snippet>
			<description><![CDATA[<br>Source: Wikipedia article <a href="http://en.wikipedia.org/wiki/Claude-Mélançon_Ecological_Reserve">Claude-Mélançon Ecological Reserve</a>]]></description>
		</Placemark>
		<Placemark>
			<name><![CDATA[Commando Drift Nature Reserve]]></name>
			<Point>
				<coordinates>26.0244444444444,-32.0538888888889,0</coordinates>
			</Point>
			<Snippet></Snippet>
			<description><![CDATA[<br>Source: Wikipedia article <a href="http://en.wikipedia.org/wiki/Commando_Drift_Nature_Reserve">Commando Drift Nature Reserve</a>]]></description>
		</Placemark>
		<Placemark>
			<name><![CDATA[Conkle's Hollow State Nature Preserve]]></name>
			<Point>
				<coordinates>-82.5755555555556,39.4547222222222,0</coordinates>
			</Point>
			<Snippet></Snippet>
			<description><![CDATA[<br>Source: Wikipedia article <a href="http://en.wikipedia.org/wiki/Conkle's_Hollow_State_Nature_Preserve">Conkle's Hollow State Nature Preserve</a>]]></description>
		</Placemark>
		<Placemark>
			<name><![CDATA[Cosumnes River Preserve]]></name>
			<Point>
				<coordinates>-121.439166666667,38.2655555555556,0</coordinates>
			</Point>
			<Snippet></Snippet>
			<description><![CDATA[<br>Source: Wikipedia article <a href="http://en.wikipedia.org/wiki/Cosumnes_River_Preserve">Cosumnes River Preserve</a>]]></description>
		</Placemark>
		<Placemark>
			<name><![CDATA[Couchepaganiche Ecological Reserve]]></name>
			<Point>
				<coordinates>-71.8389,48.3681,0</coordinates>
			</Point>
			<Snippet></Snippet>
			<description><![CDATA[<br>Source: Wikipedia article <a href="http://en.wikipedia.org/wiki/Couchepaganiche_Ecological_Reserve">Couchepaganiche Ecological Reserve</a>]]></description>
		</Placemark>
		<Placemark>
			<name><![CDATA[Danggali Conservation Park]]></name>
			<Point>
				<coordinates>140.716944444444,-33.3291666666667,0</coordinates>
			</Point>
			<Snippet></Snippet>
			<description><![CDATA[<br>Source: Wikipedia article <a href="http://en.wikipedia.org/wiki/Danggali_Conservation_Park">Danggali Conservation Park</a>]]></description>
		</Placemark>
		<Placemark>
			<name><![CDATA[Darwin Nature Reserve]]></name>
			<Point>
				<coordinates>37.9833333333333,58.5833333333333,0</coordinates>
			</Point>
			<Snippet></Snippet>
			<description><![CDATA[<br>Source: Wikipedia article <a href="http://en.wikipedia.org/wiki/Darwin_Nature_Reserve">Darwin Nature Reserve</a>]]></description>
		</Placemark>
		<Placemark>
			<name><![CDATA[Dipperu National Park]]></name>
			<Point>
				<coordinates>148.715277777778,-21.9380555555556,0</coordinates>
			</Point>
			<Snippet></Snippet>
			<description><![CDATA[<br>Source: Wikipedia article <a href="http://en.wikipedia.org/wiki/Dipperu_National_Park">Dipperu National Park</a>]]></description>
		</Placemark>
		<Placemark>
			<name><![CDATA[Dnyprovsko-Orylsky Nature Reserve]]></name>
			<Point>
				<coordinates>49.5,34.8333333333333,0</coordinates>
			</Point>
			<Snippet></Snippet>
			<description><![CDATA[<br>Source: Wikipedia article <a href="http://en.wikipedia.org/wiki/Dnyprovsko-Orylsky_Nature_Reserve">Dnyprovsko-Orylsky Nature Reserve</a>]]></description>
		</Placemark>
		<Placemark>
			<name><![CDATA[Dowagiac Woods]]></name>
			<Point>
				<coordinates>-86.18225,41.97604,0</coordinates>
			</Point>
			<Snippet></Snippet>
			<description><![CDATA[<br>Source: Wikipedia article <a href="http://en.wikipedia.org/wiki/Dowagiac_Woods">Dowagiac Woods</a>]]></description>
		</Placemark>
		<Placemark>
			<name><![CDATA[Dunes-de-Berry Ecological Reserve]]></name>
			<Point>
				<coordinates>-78.3917,48.8,0</coordinates>
			</Point>
			<Snippet></Snippet>
			<description><![CDATA[<br>Source: Wikipedia article <a href="http://en.wikipedia.org/wiki/Dunes-de-Berry_Ecological_Reserve">Dunes-de-Berry Ecological Reserve</a>]]></description>
		</Placemark>
		<Placemark>
			<name><![CDATA[Dunes-de-la-Moraine-d'Harricana Ecological Reserve]]></name>
			<Point>
				<coordinates>-78.25,47.7833,0</coordinates>
			</Point>
			<Snippet></Snippet>
			<description><![CDATA[<br>Source: Wikipedia article <a href="http://en.wikipedia.org/wiki/Dunes-de-la-Moraine-d'Harricana_Ecological_Reserve">Dunes-de-la-Moraine-d'Harricana Ecological Reserve</a>]]></description>
		</Placemark>
		<Placemark>
			<name><![CDATA[Dwesa Nature Reserve]]></name>
			<Point>
				<coordinates>28.895,-32.26,0</coordinates>
			</Point>
			<Snippet></Snippet>
			<description><![CDATA[<br>Source: Wikipedia article <a href="http://en.wikipedia.org/wiki/Dwesa_Nature_Reserve">Dwesa Nature Reserve</a>]]></description>
		</Placemark>
		<Placemark>
			<name><![CDATA[East Carpathian Biosphere Reserve]]></name>
			<Point>
				<coordinates>22.5677777777778,49.0822222222222,0</coordinates>
			</Point>
			<Snippet></Snippet>
			<description><![CDATA[<br>Source: Wikipedia article <a href="http://en.wikipedia.org/wiki/East_Carpathian_Biosphere_Reserve">East Carpathian Biosphere Reserve</a>]]></description>
		</Placemark>
		<Placemark>
			<name><![CDATA[East London Coast Nature Reserve]]></name>
			<Point>
				<coordinates>27.9577777777778,-32.9786111111111,0</coordinates>
			</Point>
			<Snippet></Snippet>
			<description><![CDATA[<br>Source: Wikipedia article <a href="http://en.wikipedia.org/wiki/East_London_Coast_Nature_Reserve">East London Coast Nature Reserve</a>]]></description>
		</Placemark>
		<Placemark>
			<name><![CDATA[Epping Forest National Park]]></name>
			<Point>
				<coordinates>146.701388888889,-22.3516666666667,0</coordinates>
			</Point>
			<Snippet></Snippet>
			<description><![CDATA[<br>Source: Wikipedia article <a href="http://en.wikipedia.org/wiki/Epping_Forest_National_Park">Epping Forest National Park</a>]]></description>
		</Placemark>
		<Placemark>
			<name><![CDATA[Ernest-Lepage Ecological Reserve]]></name>
			<Point>
				<coordinates>-65.7167,48.525,0</coordinates>
			</Point>
			<Snippet></Snippet>
			<description><![CDATA[<br>Source: Wikipedia article <a href="http://en.wikipedia.org/wiki/Ernest-Lepage_Ecological_Reserve">Ernest-Lepage Ecological Reserve</a>]]></description>
		</Placemark>
		<Placemark>
			<name><![CDATA[Estivant Pines]]></name>
			<Point>
				<coordinates>-87.87746,47.44599,0</coordinates>
			</Point>
			<Snippet></Snippet>
			<description><![CDATA[<br>Source: Wikipedia article <a href="http://en.wikipedia.org/wiki/Estivant_Pines">Estivant Pines</a>]]></description>
		</Placemark>
		<Placemark>
			<name><![CDATA[Experimental Oculina Research Reserve]]></name>
			<Point>
				<coordinates>-80,28,0</coordinates>
			</Point>
			<Snippet></Snippet>
			<description><![CDATA[<br>Source: Wikipedia article <a href="http://en.wikipedia.org/wiki/Experimental_Oculina_Research_Reserve">Experimental Oculina Research Reserve</a>]]></description>
		</Placemark>
		<Placemark>
			<name><![CDATA[Fairfax Islands]]></name>
			<Point>
				<coordinates>152.370277777778,-23.8588888888889,0</coordinates>
			</Point>
			<Snippet></Snippet>
			<description><![CDATA[<br>Source: Wikipedia article <a href="http://en.wikipedia.org/wiki/Fairfax_Islands">Fairfax Islands</a>]]></description>
		</Placemark>
		<Placemark>
			<name><![CDATA[East Fairfax - Fairfax Islands]]></name>
			<Point>
				<coordinates>152.377222222222,-23.855,0</coordinates>
			</Point>
			<Snippet></Snippet>
			<description><![CDATA[<br>Source: Wikipedia article <a href="http://en.wikipedia.org/wiki/Fairfax_Islands">Fairfax Islands</a>]]></description>
		</Placemark>
		<Placemark>
			<name><![CDATA[West Fairfax - Fairfax Islands]]></name>
			<Point>
				<coordinates>152.367222222222,-23.8619444444444,0</coordinates>
			</Point>
			<Snippet></Snippet>
			<description><![CDATA[<br>Source: Wikipedia article <a href="http://en.wikipedia.org/wiki/Fairfax_Islands">Fairfax Islands</a>]]></description>
		</Placemark>
		<Placemark>
			<name><![CDATA[Fairview Conservation Park]]></name>
			<Point>
				<coordinates>140.41095,-36.83066,0</coordinates>
			</Point>
			<Snippet></Snippet>
			<description><![CDATA[<br>Source: Wikipedia article <a href="http://en.wikipedia.org/wiki/Fairview_Conservation_Park">Fairview Conservation Park</a>]]></description>
		</Placemark>
		<Placemark>
			<name><![CDATA[Fernald Ecological Reserve]]></name>
			<Point>
				<coordinates>-66.6897,48.8906,0</coordinates>
			</Point>
			<Snippet></Snippet>
			<description><![CDATA[<br>Source: Wikipedia article <a href="http://en.wikipedia.org/wiki/Fernald_Ecological_Reserve">Fernald Ecological Reserve</a>]]></description>
		</Placemark>
		<Placemark>
			<name><![CDATA[Forêt-la-Blanche Ecological Reserve]]></name>
			<Point>
				<coordinates>-75.28,45.7314,0</coordinates>
			</Point>
			<Snippet></Snippet>
			<description><![CDATA[<br>Source: Wikipedia article <a href="http://en.wikipedia.org/wiki/Forêt-la-Blanche_Ecological_Reserve">Forêt-la-Blanche Ecological Reserve</a>]]></description>
		</Placemark>
		<Placemark>
			<name><![CDATA[G.-Oscar-Villeneuve Ecological Reserve]]></name>
			<Point>
				<coordinates>-70.5149,48.475,0</coordinates>
			</Point>
			<Snippet></Snippet>
			<description><![CDATA[<br>Source: Wikipedia article <a href="http://en.wikipedia.org/wiki/G.-Oscar-Villeneuve_Ecological_Reserve">G.-Oscar-Villeneuve Ecological Reserve</a>]]></description>
		</Placemark>
		<Placemark>
			<name><![CDATA[Golija]]></name>
			<Point>
				<coordinates>20.2766666666667,43.3377777777778,0</coordinates>
			</Point>
			<Snippet></Snippet>
			<description><![CDATA[<br>Source: Wikipedia article <a href="http://en.wikipedia.org/wiki/Golija">Golija</a>]]></description>
		</Placemark>
		<Placemark>
			<name><![CDATA[Goose Creek Grasslands]]></name>
			<Point>
				<coordinates>-84.32407,42.06174,0</coordinates>
			</Point>
			<Snippet></Snippet>
			<description><![CDATA[<br>Source: Wikipedia article <a href="http://en.wikipedia.org/wiki/Goose_Creek_Grasslands">Goose Creek Grasslands</a>]]></description>
		</Placemark>
		<Placemark>
			<name><![CDATA[Grand-Lac-Salé Ecological Reserve]]></name>
			<Point>
				<coordinates>-63.3228,49.3358,0</coordinates>
			</Point>
			<Snippet></Snippet>
			<description><![CDATA[<br>Source: Wikipedia article <a href="http://en.wikipedia.org/wiki/Grand-Lac-Salé_Ecological_Reserve">Grand-Lac-Salé Ecological Reserve</a>]]></description>
		</Placemark>
		<Placemark>
			<name><![CDATA[Grande-Rivière Ecological Reserve]]></name>
			<Point>
				<coordinates>-64.705,48.5922,0</coordinates>
			</Point>
			<Snippet></Snippet>
			<description><![CDATA[<br>Source: Wikipedia article <a href="http://en.wikipedia.org/wiki/Grande-Rivière_Ecological_Reserve">Grande-Rivière Ecological Reserve</a>]]></description>
		</Placemark>
		<Placemark>
			<name><![CDATA[Grands-Ormes Ecological Reserve]]></name>
			<Point>
				<coordinates>-70.4569,47.875,0</coordinates>
			</Point>
			<Snippet></Snippet>
			<description><![CDATA[<br>Source: Wikipedia article <a href="http://en.wikipedia.org/wiki/Grands-Ormes_Ecological_Reserve">Grands-Ormes Ecological Reserve</a>]]></description>
		</Placemark>
		<Placemark>
			<name><![CDATA[Great Arctic State Nature Reserve]]></name>
			<Point>
				<coordinates>92.6,75.5,0</coordinates>
			</Point>
			<Snippet></Snippet>
			<description><![CDATA[<br>Source: Wikipedia article <a href="http://en.wikipedia.org/wiki/Great_Arctic_State_Nature_Reserve">Great Arctic State Nature Reserve</a>]]></description>
		</Placemark>
		<Placemark>
			<name><![CDATA[Great Fish River Nature Reserve]]></name>
			<Point>
				<coordinates>26.8422222222222,-32.9627777777778,0</coordinates>
			</Point>
			<Snippet></Snippet>
			<description><![CDATA[<br>Source: Wikipedia article <a href="http://en.wikipedia.org/wiki/Great_Fish_River_Nature_Reserve">Great Fish River Nature Reserve</a>]]></description>
		</Placemark>
		<Placemark>
			<name><![CDATA[Hakgala Strict Nature Reserve]]></name>
			<Point>
				<coordinates>80.8,6.91666666666667,0</coordinates>
			</Point>
			<Snippet></Snippet>
			<description><![CDATA[<br>Source: Wikipedia article <a href="http://en.wikipedia.org/wiki/Hakgala_Strict_Nature_Reserve">Hakgala Strict Nature Reserve</a>]]></description>
		</Placemark>
		<Placemark>
			<name><![CDATA[Haut Bandama Fauna and Flora Reserve]]></name>
			<Point>
				<coordinates>-5.40527222222222,8.43162222222222,0</coordinates>
			</Point>
			<Snippet></Snippet>
			<description><![CDATA[<br>Source: Wikipedia article <a href="http://en.wikipedia.org/wiki/Haut_Bandama_Fauna_and_Flora_Reserve">Haut Bandama Fauna and Flora Reserve</a>]]></description>
		</Placemark>
		<Placemark>
			<name><![CDATA[Headwaters Forest Reserve]]></name>
			<Point>
				<coordinates>-124.07959,40.63766,0</coordinates>
			</Point>
			<Snippet></Snippet>
			<description><![CDATA[<br>Source: Wikipedia article <a href="http://en.wikipedia.org/wiki/Headwaters_Forest_Reserve">Headwaters Forest Reserve</a>]]></description>
		</Placemark>
		<Placemark>
			<name><![CDATA[Hluleka Nature Reserve]]></name>
			<Point>
				<coordinates>29.3,-31.82,0</coordinates>
			</Point>
			<Snippet></Snippet>
			<description><![CDATA[<br>Source: Wikipedia article <a href="http://en.wikipedia.org/wiki/Hluleka_Nature_Reserve">Hluleka Nature Reserve</a>]]></description>
		</Placemark>
		<Placemark>
			<name><![CDATA[Hockley Valley Provincial Nature Reserve]]></name>
			<Point>
				<coordinates>-80.0622222222222,43.985,0</coordinates>
			</Point>
			<Snippet></Snippet>
			<description><![CDATA[<br>Source: Wikipedia article <a href="http://en.wikipedia.org/wiki/Hockley_Valley_Provincial_Nature_Reserve">Hockley Valley Provincial Nature Reserve</a>]]></description>
		</Placemark>
		<Placemark>
			<name><![CDATA[Hoskyn Islands]]></name>
			<Point>
				<coordinates>152.295833333333,-23.8055555555556,0</coordinates>
			</Point>
			<Snippet></Snippet>
			<description><![CDATA[<br>Source: Wikipedia article <a href="http://en.wikipedia.org/wiki/Hoskyn_Islands">Hoskyn Islands</a>]]></description>
		</Placemark>
		<Placemark>
			<name><![CDATA[East Hoskyn - Hoskyn Islands]]></name>
			<Point>
				<coordinates>152.290833333333,-23.8072222222222,0</coordinates>
			</Point>
			<Snippet></Snippet>
			<description><![CDATA[<br>Source: Wikipedia article <a href="http://en.wikipedia.org/wiki/Hoskyn_Islands">Hoskyn Islands</a>]]></description>
		</Placemark>
		<Placemark>
			<name><![CDATA[West Hoskyn - Hoskyn Islands]]></name>
			<Point>
				<coordinates>152.3,-23.8016666666667,0</coordinates>
			</Point>
			<Snippet></Snippet>
			<description><![CDATA[<br>Source: Wikipedia article <a href="http://en.wikipedia.org/wiki/Hoskyn_Islands">Hoskyn Islands</a>]]></description>
		</Placemark>
		<Placemark>
			<name><![CDATA[Hutan Pinus/Janthoi Nature Reserve]]></name>
			<Point>
				<coordinates>95.694351,5.173216,0</coordinates>
			</Point>
			<Snippet></Snippet>
			<description><![CDATA[<br>Source: Wikipedia article <a href="http://en.wikipedia.org/wiki/Hutan_Pinus/Janthoi_Nature_Reserve">Hutan Pinus/Janthoi Nature Reserve</a>]]></description>
		</Placemark>
		<Placemark>
			<name><![CDATA[Häädetkeidas Strict Nature Reserve]]></name>
			<Point>
				<coordinates>22.7516666666667,62.0497222222222,0</coordinates>
			</Point>
			<Snippet></Snippet>
			<description><![CDATA[<br>Source: Wikipedia article <a href="http://en.wikipedia.org/wiki/Häädetkeidas_Strict_Nature_Reserve">Häädetkeidas Strict Nature Reserve</a>]]></description>
		</Placemark>
		<Placemark>
			<name><![CDATA[Indwarra National Park]]></name>
			<Point>
				<coordinates>151.250555555556,-30.0855555555556,0</coordinates>
			</Point>
			<Snippet></Snippet>
			<description><![CDATA[<br>Source: Wikipedia article <a href="http://en.wikipedia.org/wiki/Indwarra_National_Park">Indwarra National Park</a>]]></description>
		</Placemark>
		<Placemark>
			<name><![CDATA[Irène-Fournier Ecological Reserve]]></name>
			<Point>
				<coordinates>-66.2403,48.6528,0</coordinates>
			</Point>
			<Snippet></Snippet>
			<description><![CDATA[<br>Source: Wikipedia article <a href="http://en.wikipedia.org/wiki/Irène-Fournier_Ecological_Reserve">Irène-Fournier Ecological Reserve</a>]]></description>
		</Placemark>
		<Placemark>
			<name><![CDATA[Irénée-Marie Ecological Reserve]]></name>
			<Point>
				<coordinates>-73.3167,46.9,0</coordinates>
			</Point>
			<Snippet></Snippet>
			<description><![CDATA[<br>Source: Wikipedia article <a href="http://en.wikipedia.org/wiki/Irénée-Marie_Ecological_Reserve">Irénée-Marie Ecological Reserve</a>]]></description>
		</Placemark>
		<Placemark>
			<name><![CDATA[J.-Clovis-Laflamme Ecological Reserve]]></name>
			<Point>
				<coordinates>-72.5597,48.3417,0</coordinates>
			</Point>
			<Snippet></Snippet>
			<description><![CDATA[<br>Source: Wikipedia article <a href="http://en.wikipedia.org/wiki/J.-Clovis-Laflamme_Ecological_Reserve">J.-Clovis-Laflamme Ecological Reserve</a>]]></description>
		</Placemark>
		<Placemark>
			<name><![CDATA[Jackrabbit Ecological Reserve]]></name>
			<Point>
				<coordinates>-74.4736,46.0069,0</coordinates>
			</Point>
			<Snippet></Snippet>
			<description><![CDATA[<br>Source: Wikipedia article <a href="http://en.wikipedia.org/wiki/Jackrabbit_Ecological_Reserve">Jackrabbit Ecological Reserve</a>]]></description>
		</Placemark>
		<Placemark>
			<name><![CDATA[James-Little Ecological Reserve]]></name>
			<Point>
				<coordinates>-77.6125,46.1889,0</coordinates>
			</Point>
			<Snippet></Snippet>
			<description><![CDATA[<br>Source: Wikipedia article <a href="http://en.wikipedia.org/wiki/James-Little_Ecological_Reserve">James-Little Ecological Reserve</a>]]></description>
		</Placemark>
		<Placemark>
			<name><![CDATA[Jasper Woods]]></name>
			<Point>
				<coordinates>-82.58509,42.95694,0</coordinates>
			</Point>
			<Snippet></Snippet>
			<description><![CDATA[<br>Source: Wikipedia article <a href="http://en.wikipedia.org/wiki/Jasper_Woods">Jasper Woods</a>]]></description>
		</Placemark>
		<Placemark>
			<name><![CDATA[Judith-De Brésoles Ecological Reserve]]></name>
			<Point>
				<coordinates>-72.3111,47.6125,0</coordinates>
			</Point>
			<Snippet></Snippet>
			<description><![CDATA[<br>Source: Wikipedia article <a href="http://en.wikipedia.org/wiki/Judith-De_Brésoles_Ecological_Reserve">Judith-De Brésoles Ecological Reserve</a>]]></description>
		</Placemark>
		<Placemark>
			<name><![CDATA[Jules-Carpentier Ecological Reserve]]></name>
			<Point>
				<coordinates>-71.6658,46.7778,0</coordinates>
			</Point>
			<Snippet></Snippet>
			<description><![CDATA[<br>Source: Wikipedia article <a href="http://en.wikipedia.org/wiki/Jules-Carpentier_Ecological_Reserve">Jules-Carpentier Ecological Reserve</a>]]></description>
		</Placemark>
		<Placemark>
			<name><![CDATA[Kamchia (biosphere reserve)]]></name>
			<Point>
				<coordinates>27.8793833333333,43.019575,0</coordinates>
			</Point>
			<Snippet></Snippet>
			<description><![CDATA[<br>Source: Wikipedia article <a href="http://en.wikipedia.org/wiki/Kamchia_(biosphere_reserve)">Kamchia (biosphere reserve)</a>]]></description>
		</Placemark>
		<Placemark>
			<name><![CDATA[Karatal-Japyryk State Nature Reserve]]></name>
			<Point>
				<coordinates>75.391,41.6237,0</coordinates>
			</Point>
			<Snippet></Snippet>
			<description><![CDATA[<br>Source: Wikipedia article <a href="http://en.wikipedia.org/wiki/Karatal-Japyryk_State_Nature_Reserve">Karatal-Japyryk State Nature Reserve</a>]]></description>
		</Placemark>
		<Placemark>
			<name><![CDATA[Karatau Nature Reserve]]></name>
			<Point>
				<coordinates>68.7333333333333,43.7166666666667,0</coordinates>
			</Point>
			<Snippet></Snippet>
			<description><![CDATA[<br>Source: Wikipedia article <a href="http://en.wikipedia.org/wiki/Karatau_Nature_Reserve">Karatau Nature Reserve</a>]]></description>
		</Placemark>
		<Placemark>
			<name><![CDATA[Keppel Bay Islands National Park]]></name>
			<Point>
				<coordinates>150.871666666667,-23.0416666666667,0</coordinates>
			</Point>
			<Snippet></Snippet>
			<description><![CDATA[<br>Source: Wikipedia article <a href="http://en.wikipedia.org/wiki/Keppel_Bay_Islands_National_Park">Keppel Bay Islands National Park</a>]]></description>
		</Placemark>
		<Placemark>
			<name><![CDATA[Keppel Bay Islands National Park]]></name>
			<Point>
				<coordinates>151.075,-23.1608333333333,0</coordinates>
			</Point>
			<Snippet></Snippet>
			<description><![CDATA[<br>Source: Wikipedia article <a href="http://en.wikipedia.org/wiki/Keppel_Bay_Islands_National_Park">Keppel Bay Islands National Park</a>]]></description>
		</Placemark>
		<Placemark>
			<name><![CDATA[Kern River Preserve]]></name>
			<Point>
				<coordinates>-118.316111111111,35.6694444444444,0</coordinates>
			</Point>
			<Snippet></Snippet>
			<description><![CDATA[<br>Source: Wikipedia article <a href="http://en.wikipedia.org/wiki/Kern_River_Preserve">Kern River Preserve</a>]]></description>
		</Placemark>
		<Placemark>
			<name><![CDATA[Kettles-de-Berry Ecological Reserve]]></name>
			<Point>
				<coordinates>-78.3944,48.8481,0</coordinates>
			</Point>
			<Snippet></Snippet>
			<description><![CDATA[<br>Source: Wikipedia article <a href="http://en.wikipedia.org/wiki/Kettles-de-Berry_Ecological_Reserve">Kettles-de-Berry Ecological Reserve</a>]]></description>
		</Placemark>
		<Placemark>
			<name><![CDATA[Khutzeymateen Grizzly Bear Sanctuary]]></name>
			<Point>
				<coordinates>-129.783,54.628,0</coordinates>
			</Point>
			<Snippet></Snippet>
			<description><![CDATA[<br>Source: Wikipedia article <a href="http://en.wikipedia.org/wiki/Khutzeymateen_Grizzly_Bear_Sanctuary">Khutzeymateen Grizzly Bear Sanctuary</a>]]></description>
		</Placemark>
		<Placemark>
			<name><![CDATA[Klipfel]]></name>
			<Point>
				<coordinates>-87.9576,47.46611,0</coordinates>
			</Point>
			<Snippet></Snippet>
			<description><![CDATA[<br>Source: Wikipedia article <a href="http://en.wikipedia.org/wiki/Klipfel">Klipfel</a>]]></description>
		</Placemark>
		<Placemark>
			<name><![CDATA[Komandorsky Zapovednik]]></name>
			<Point>
				<coordinates>166,54,0</coordinates>
			</Point>
			<Snippet></Snippet>
			<description><![CDATA[<br>Source: Wikipedia article <a href="http://en.wikipedia.org/wiki/Komandorsky_Zapovednik">Komandorsky Zapovednik</a>]]></description>
		</Placemark>
		<Placemark>
			<name><![CDATA[Kronotsky Nature Reserve]]></name>
			<Point>
				<coordinates>160.540277777778,54.9252777777778,0</coordinates>
			</Point>
			<Snippet></Snippet>
			<description><![CDATA[<br>Source: Wikipedia article <a href="http://en.wikipedia.org/wiki/Kronotsky_Nature_Reserve">Kronotsky Nature Reserve</a>]]></description>
		</Placemark>
		<Placemark>
			<name><![CDATA[Köpetdag Nature Reserve]]></name>
			<Point>
				<coordinates>58.27,37.734,0</coordinates>
			</Point>
			<Snippet></Snippet>
			<description><![CDATA[<br>Source: Wikipedia article <a href="http://en.wikipedia.org/wiki/Köpetdag_Nature_Reserve">Köpetdag Nature Reserve</a>]]></description>
		</Placemark>
		<Placemark>
			<name><![CDATA[Lac-Malakisis Ecological Reserve]]></name>
			<Point>
				<coordinates>-78.65,46.7,0</coordinates>
			</Point>
			<Snippet></Snippet>
			<description><![CDATA[<br>Source: Wikipedia article <a href="http://en.wikipedia.org/wiki/Lac-Malakisis_Ecological_Reserve">Lac-Malakisis Ecological Reserve</a>]]></description>
		</Placemark>
		<Placemark>
			<name><![CDATA[Lac-à-la-Tortue Ecological Reserve]]></name>
			<Point>
				<coordinates>-72.6667,46.55,0</coordinates>
			</Point>
			<Snippet></Snippet>
			<description><![CDATA[<br>Source: Wikipedia article <a href="http://en.wikipedia.org/wiki/Lac-à-la-Tortue_Ecological_Reserve">Lac-à-la-Tortue Ecological Reserve</a>]]></description>
		</Placemark>
		<Placemark>
			<name><![CDATA[Lake Atanasovsko]]></name>
			<Point>
				<coordinates>27.47,42.5819444444444,0</coordinates>
			</Point>
			<Snippet></Snippet>
			<description><![CDATA[<br>Source: Wikipedia article <a href="http://en.wikipedia.org/wiki/Lake_Atanasovsko">Lake Atanasovsko</a>]]></description>
		</Placemark>
		<Placemark>
			<name><![CDATA[Lake Eyre National Park]]></name>
			<Point>
				<coordinates>137.523888888889,-28.6688888888889,0</coordinates>
			</Point>
			<Snippet></Snippet>
			<description><![CDATA[<br>Source: Wikipedia article <a href="http://en.wikipedia.org/wiki/Lake_Eyre_National_Park">Lake Eyre National Park</a>]]></description>
		</Placemark>
		<Placemark>
			<name><![CDATA[Lake Gairdner National Park]]></name>
			<Point>
				<coordinates>135.853611111111,-31.6972222222222,0</coordinates>
			</Point>
			<Snippet></Snippet>
			<description><![CDATA[<br>Source: Wikipedia article <a href="http://en.wikipedia.org/wiki/Lake_Gairdner_National_Park">Lake Gairdner National Park</a>]]></description>
		</Placemark>
		<Placemark>
			<name><![CDATA[Lake Torrens National Park]]></name>
			<Point>
				<coordinates>137.859722222222,-31.0444444444444,0</coordinates>
			</Point>
			<Snippet></Snippet>
			<description><![CDATA[<br>Source: Wikipedia article <a href="http://en.wikipedia.org/wiki/Lake_Torrens_National_Park">Lake Torrens National Park</a>]]></description>
		</Placemark>
		<Placemark>
			<name><![CDATA[Lakeville Swamp]]></name>
			<Point>
				<coordinates>-83.14934,42.81715,0</coordinates>
			</Point>
			<Snippet></Snippet>
			<description><![CDATA[<br>Source: Wikipedia article <a href="http://en.wikipedia.org/wiki/Lakeville_Swamp">Lakeville Swamp</a>]]></description>
		</Placemark>
		<Placemark>
			<name><![CDATA[Lion's Head Provincial Park]]></name>
			<Point>
				<coordinates>-81.201,44.997,0</coordinates>
			</Point>
			<Snippet></Snippet>
			<description><![CDATA[<br>Source: Wikipedia article <a href="http://en.wikipedia.org/wiki/Lion's_Head_Provincial_Park">Lion's Head Provincial Park</a>]]></description>
		</Placemark>
		<Placemark>
			<name><![CDATA[Lion Island (New South Wales)]]></name>
			<Point>
				<coordinates>151.317701,-33.556917,0</coordinates>
			</Point>
			<Snippet></Snippet>
			<description><![CDATA[<br>Source: Wikipedia article <a href="http://en.wikipedia.org/wiki/Lion_Island_(New_South_Wales)">Lion Island (New South Wales)</a>]]></description>
		</Placemark>
		<Placemark>
			<name><![CDATA[Lionel-Cinq-Mars Ecological Reserve]]></name>
			<Point>
				<coordinates>-71.7708,46.5139,0</coordinates>
			</Point>
			<Snippet></Snippet>
			<description><![CDATA[<br>Source: Wikipedia article <a href="http://en.wikipedia.org/wiki/Lionel-Cinq-Mars_Ecological_Reserve">Lionel-Cinq-Mars Ecological Reserve</a>]]></description>
		</Placemark>
		<Placemark>
			<name><![CDATA[Loch Lomond Vernal Pool Ecological Reserve]]></name>
			<Point>
				<coordinates>-122.72,38.8655555555556,0</coordinates>
			</Point>
			<Snippet></Snippet>
			<description><![CDATA[<br>Source: Wikipedia article <a href="http://en.wikipedia.org/wiki/Loch_Lomond_Vernal_Pool_Ecological_Reserve">Loch Lomond Vernal Pool Ecological Reserve</a>]]></description>
		</Placemark>
		<Placemark>
			<name><![CDATA[Lokobe Reserve]]></name>
			<Point>
				<coordinates>48.3183333333333,-13.3991666666667,0</coordinates>
			</Point>
			<Snippet></Snippet>
			<description><![CDATA[<br>Source: Wikipedia article <a href="http://en.wikipedia.org/wiki/Lokobe_Reserve">Lokobe Reserve</a>]]></description>
		</Placemark>
		<Placemark>
			<name><![CDATA[Lomas de Barbudal Biological Reserve]]></name>
			<Point>
				<coordinates>-85.3744444444444,10.5102777777778,0</coordinates>
			</Point>
			<Snippet></Snippet>
			<description><![CDATA[<br>Source: Wikipedia article <a href="http://en.wikipedia.org/wiki/Lomas_de_Barbudal_Biological_Reserve">Lomas de Barbudal Biological Reserve</a>]]></description>
		</Placemark>
		<Placemark>
			<name><![CDATA[Lomas de Lachay]]></name>
			<Point>
				<coordinates>-77.3694444444444,-11.3583333333333,0</coordinates>
			</Point>
			<Snippet></Snippet>
			<description><![CDATA[<br>Source: Wikipedia article <a href="http://en.wikipedia.org/wiki/Lomas_de_Lachay">Lomas de Lachay</a>]]></description>
		</Placemark>
		<Placemark>
			<name><![CDATA[Lost Forest Research Natural Area]]></name>
			<Point>
				<coordinates>-120.33,43.38,0</coordinates>
			</Point>
			<Snippet></Snippet>
			<description><![CDATA[<br>Source: Wikipedia article <a href="http://en.wikipedia.org/wiki/Lost_Forest_Research_Natural_Area">Lost Forest Research Natural Area</a>]]></description>
		</Placemark>
		<Placemark>
			<name><![CDATA[Louis-Babel Ecological Reserve]]></name>
			<Point>
				<coordinates>-68.6833,51.45,0</coordinates>
			</Point>
			<Snippet></Snippet>
			<description><![CDATA[<br>Source: Wikipedia article <a href="http://en.wikipedia.org/wiki/Louis-Babel_Ecological_Reserve">Louis-Babel Ecological Reserve</a>]]></description>
		</Placemark>
		<Placemark>
			<name><![CDATA[Louis-Ovide-Brunet Ecological Reserve]]></name>
			<Point>
				<coordinates>-72.0889,48.2736,0</coordinates>
			</Point>
			<Snippet></Snippet>
			<description><![CDATA[<br>Source: Wikipedia article <a href="http://en.wikipedia.org/wiki/Louis-Ovide-Brunet_Ecological_Reserve">Louis-Ovide-Brunet Ecological Reserve</a>]]></description>
		</Placemark>
		<Placemark>
			<name><![CDATA[Louis-Zéphirin-Rousseau Ecological Reserve]]></name>
			<Point>
				<coordinates>-75.7875,46.2736,0</coordinates>
			</Point>
			<Snippet></Snippet>
			<description><![CDATA[<br>Source: Wikipedia article <a href="http://en.wikipedia.org/wiki/Louis-Zéphirin-Rousseau_Ecological_Reserve">Louis-Zéphirin-Rousseau Ecological Reserve</a>]]></description>
		</Placemark>
		<Placemark>
			<name><![CDATA[Léon-Provancher Ecological Reserve]]></name>
			<Point>
				<coordinates>-72.4764,46.3117,0</coordinates>
			</Point>
			<Snippet></Snippet>
			<description><![CDATA[<br>Source: Wikipedia article <a href="http://en.wikipedia.org/wiki/Léon-Provancher_Ecological_Reserve">Léon-Provancher Ecological Reserve</a>]]></description>
		</Placemark>
		<Placemark>
			<name><![CDATA[Maliau Basin]]></name>
			<Point>
				<coordinates>116.9002,4.8304,0</coordinates>
			</Point>
			<Snippet></Snippet>
			<description><![CDATA[<br>Source: Wikipedia article <a href="http://en.wikipedia.org/wiki/Maliau_Basin">Maliau Basin</a>]]></description>
		</Placemark>
		<Placemark>
			<name><![CDATA[Mallanganee National Park]]></name>
			<Point>
				<coordinates>152.753611111111,-28.9191666666667,0</coordinates>
			</Point>
			<Snippet></Snippet>
			<description><![CDATA[<br>Source: Wikipedia article <a href="http://en.wikipedia.org/wiki/Mallanganee_National_Park">Mallanganee National Park</a>]]></description>
		</Placemark>
		<Placemark>
			<name><![CDATA[Mallee Cliffs National Park]]></name>
			<Point>
				<coordinates>142.5775,-34.1752777777778,0</coordinates>
			</Point>
			<Snippet></Snippet>
			<description><![CDATA[<br>Source: Wikipedia article <a href="http://en.wikipedia.org/wiki/Mallee_Cliffs_National_Park">Mallee Cliffs National Park</a>]]></description>
		</Placemark>
		<Placemark>
			<name><![CDATA[Manche-d'Épée Ecological Reserve]]></name>
			<Point>
				<coordinates>-65.4472,49.2125,0</coordinates>
			</Point>
			<Snippet></Snippet>
			<description><![CDATA[<br>Source: Wikipedia article <a href="http://en.wikipedia.org/wiki/Manche-d'Épée_Ecological_Reserve">Manche-d'Épée Ecological Reserve</a>]]></description>
		</Placemark>
		<Placemark>
			<name><![CDATA[Marcel-Léger Ecological Reserve]]></name>
			<Point>
				<coordinates>-72.625,47.2875,0</coordinates>
			</Point>
			<Snippet></Snippet>
			<description><![CDATA[<br>Source: Wikipedia article <a href="http://en.wikipedia.org/wiki/Marcel-Léger_Ecological_Reserve">Marcel-Léger Ecological Reserve</a>]]></description>
		</Placemark>
		<Placemark>
			<name><![CDATA[Marcel-Raymond Ecological Reserve]]></name>
			<Point>
				<coordinates>-73.2528,45.1236,0</coordinates>
			</Point>
			<Snippet></Snippet>
			<description><![CDATA[<br>Source: Wikipedia article <a href="http://en.wikipedia.org/wiki/Marcel-Raymond_Ecological_Reserve">Marcel-Raymond Ecological Reserve</a>]]></description>
		</Placemark>
		<Placemark>
			<name><![CDATA[Marcelle-Gauvreau Ecological Reserve]]></name>
			<Point>
				<coordinates>-70.0278,48.3417,0</coordinates>
			</Point>
			<Snippet></Snippet>
			<description><![CDATA[<br>Source: Wikipedia article <a href="http://en.wikipedia.org/wiki/Marcelle-Gauvreau_Ecological_Reserve">Marcelle-Gauvreau Ecological Reserve</a>]]></description>
		</Placemark>
		<Placemark>
			<name><![CDATA[Marie-Jean-Eudes Ecological Reserve]]></name>
			<Point>
				<coordinates>-73.1486,46.7014,0</coordinates>
			</Point>
			<Snippet></Snippet>
			<description><![CDATA[<br>Source: Wikipedia article <a href="http://en.wikipedia.org/wiki/Marie-Jean-Eudes_Ecological_Reserve">Marie-Jean-Eudes Ecological Reserve</a>]]></description>
		</Placemark>
		<Placemark>
			<name><![CDATA[Maryland National Park]]></name>
			<Point>
				<coordinates>152.077777777778,-28.5047222222222,0</coordinates>
			</Point>
			<Snippet></Snippet>
			<description><![CDATA[<br>Source: Wikipedia article <a href="http://en.wikipedia.org/wiki/Maryland_National_Park">Maryland National Park</a>]]></description>
		</Placemark>
		<Placemark>
			<name><![CDATA[Matamec Ecological Reserve]]></name>
			<Point>
				<coordinates>-65.9,50.3666666666667,0</coordinates>
			</Point>
			<Snippet></Snippet>
			<description><![CDATA[<br>Source: Wikipedia article <a href="http://en.wikipedia.org/wiki/Matamec_Ecological_Reserve">Matamec Ecological Reserve</a>]]></description>
		</Placemark>
		<Placemark>
			<name><![CDATA[McConnell River Migratory Bird Sanctuary]]></name>
			<Point>
				<coordinates>-94.3333333333333,60.8333333333333,0</coordinates>
			</Point>
			<Snippet></Snippet>
			<description><![CDATA[<br>Source: Wikipedia article <a href="http://en.wikipedia.org/wiki/McConnell_River_Migratory_Bird_Sanctuary">McConnell River Migratory Bird Sanctuary</a>]]></description>
		</Placemark>
		<Placemark>
			<name><![CDATA[Micocoulier Ecological Reserve]]></name>
			<Point>
				<coordinates>-74.175,45.2833,0</coordinates>
			</Point>
			<Snippet></Snippet>
			<description><![CDATA[<br>Source: Wikipedia article <a href="http://en.wikipedia.org/wiki/Micocoulier_Ecological_Reserve">Micocoulier Ecological Reserve</a>]]></description>
		</Placemark>
		<Placemark>
			<name><![CDATA[Mine-aux-Pipistrelles Ecological Reserve]]></name>
			<Point>
				<coordinates>-72.3944,45.1542,0</coordinates>
			</Point>
			<Snippet></Snippet>
			<description><![CDATA[<br>Source: Wikipedia article <a href="http://en.wikipedia.org/wiki/Mine-aux-Pipistrelles_Ecological_Reserve">Mine-aux-Pipistrelles Ecological Reserve</a>]]></description>
		</Placemark>
		<Placemark>
			<name><![CDATA[Minnitaki Kames Provincial Park]]></name>
			<Point>
				<coordinates>-91.8666666666667,49.9,0</coordinates>
			</Point>
			<Snippet></Snippet>
			<description><![CDATA[<br>Source: Wikipedia article <a href="http://en.wikipedia.org/wiki/Minnitaki_Kames_Provincial_Park">Minnitaki Kames Provincial Park</a>]]></description>
		</Placemark>
		<Placemark>
			<name><![CDATA[Mogumber Nature Reserve]]></name>
			<Point>
				<coordinates>116.0433,-31.0701,0</coordinates>
			</Point>
			<Snippet></Snippet>
			<description><![CDATA[<br>Source: Wikipedia article <a href="http://en.wikipedia.org/wiki/Mogumber_Nature_Reserve">Mogumber Nature Reserve</a>]]></description>
		</Placemark>
		<Placemark>
			<name><![CDATA[Mont-Saint-Pierre Ecological Reserve]]></name>
			<Point>
				<coordinates>-65.7925,49.1889,0</coordinates>
			</Point>
			<Snippet></Snippet>
			<description><![CDATA[<br>Source: Wikipedia article <a href="http://en.wikipedia.org/wiki/Mont-Saint-Pierre_Ecological_Reserve">Mont-Saint-Pierre Ecological Reserve</a>]]></description>
		</Placemark>
		<Placemark>
			<name><![CDATA[Montague Island (Australia)]]></name>
			<Point>
				<coordinates>150.216666666667,-36.25,0</coordinates>
			</Point>
			<Snippet></Snippet>
			<description><![CDATA[<br>Source: Wikipedia article <a href="http://en.wikipedia.org/wiki/Montague_Island_(Australia)">Montague Island (Australia)</a>]]></description>
		</Placemark>
		<Placemark>
			<name><![CDATA[Mount Bauple National Park]]></name>
			<Point>
				<coordinates>152.573333333333,-25.8136111111111,0</coordinates>
			</Point>
			<Snippet></Snippet>
			<description><![CDATA[<br>Source: Wikipedia article <a href="http://en.wikipedia.org/wiki/Mount_Bauple_National_Park">Mount Bauple National Park</a>]]></description>
		</Placemark>
		<Placemark>
			<name><![CDATA[Muogamarra Nature Reserve Entrance]]></name>
			<Point>
				<coordinates>151.191388888889,-33.5741666666667,0</coordinates>
			</Point>
			<Snippet></Snippet>
			<description><![CDATA[<br>Source: Wikipedia article <a href="http://en.wikipedia.org/wiki/Muogamarra_Nature_Reserve">Muogamarra Nature Reserve</a>]]></description>
		</Placemark>
		<Placemark>
			<name><![CDATA[Muogamarra Nature Reserve]]></name>
			<Point>
				<coordinates>151.186111111111,-33.5533333333333,0</coordinates>
			</Point>
			<Snippet></Snippet>
			<description><![CDATA[<br>Source: Wikipedia article <a href="http://en.wikipedia.org/wiki/Muogamarra_Nature_Reserve">Muogamarra Nature Reserve</a>]]></description>
		</Placemark>
		<Placemark>
			<name><![CDATA[Nanda Devi National Park]]></name>
			<Point>
				<coordinates>79.8497222222222,30.4186111111111,0</coordinates>
			</Point>
			<Snippet></Snippet>
			<description><![CDATA[<br>Source: Wikipedia article <a href="http://en.wikipedia.org/wiki/Nanda_Devi_National_Park">Nanda Devi National Park</a>]]></description>
		</Placemark>
		<Placemark>
			<name><![CDATA[Negritos Islands Biological Reserve]]></name>
			<Point>
				<coordinates>-84.8456,9.823,0</coordinates>
			</Point>
			<Snippet></Snippet>
			<description><![CDATA[<br>Source: Wikipedia article <a href="http://en.wikipedia.org/wiki/Negritos_Islands_Biological_Reserve">Negritos Islands Biological Reserve</a>]]></description>
		</Placemark>
		<Placemark>
			<name><![CDATA[Ngarkat Conservation Park]]></name>
			<Point>
				<coordinates>140.6,-35.7166666666667,0</coordinates>
			</Point>
			<Snippet></Snippet>
			<description><![CDATA[<br>Source: Wikipedia article <a href="http://en.wikipedia.org/wiki/Ngarkat_Conservation_Park">Ngarkat Conservation Park</a>]]></description>
		</Placemark>
		<Placemark>
			<name><![CDATA[Nizhnesvirsky Nature Reserve]]></name>
			<Point>
				<coordinates>33,60.6,0</coordinates>
			</Point>
			<Snippet></Snippet>
			<description><![CDATA[<br>Source: Wikipedia article <a href="http://en.wikipedia.org/wiki/Nizhnesvirsky_Nature_Reserve">Nizhnesvirsky Nature Reserve</a>]]></description>
		</Placemark>
		<Placemark>
			<name><![CDATA[Nordaust-Svalbard Nature Reserve]]></name>
			<Point>
				<coordinates>23,79,0</coordinates>
			</Point>
			<Snippet></Snippet>
			<description><![CDATA[<br>Source: Wikipedia article <a href="http://en.wikipedia.org/wiki/Nordaust-Svalbard_Nature_Reserve">Nordaust-Svalbard Nature Reserve</a>]]></description>
		</Placemark>
		<Placemark>
			<name><![CDATA[Oak Creek Nature Reserve]]></name>
			<Point>
				<coordinates>148.6769,-35.0626,0</coordinates>
			</Point>
			<Snippet></Snippet>
			<description><![CDATA[<br>Source: Wikipedia article <a href="http://en.wikipedia.org/wiki/Oak_Creek_Nature_Reserve">Oak Creek Nature Reserve</a>]]></description>
		</Placemark>
		<Placemark>
			<name><![CDATA[One Tree Island]]></name>
			<Point>
				<coordinates>152.091666666667,-23.5083333333333,0</coordinates>
			</Point>
			<Snippet></Snippet>
			<description><![CDATA[<br>Source: Wikipedia article <a href="http://en.wikipedia.org/wiki/One_Tree_Island_(Queensland)">One Tree Island (Queensland)</a>]]></description>
		</Placemark>
		<Placemark>
			<name><![CDATA[Oviston Nature Reserve]]></name>
			<Point>
				<coordinates>25.7,-30.75,0</coordinates>
			</Point>
			<Snippet></Snippet>
			<description><![CDATA[<br>Source: Wikipedia article <a href="http://en.wikipedia.org/wiki/Oviston_Nature_Reserve">Oviston Nature Reserve</a>]]></description>
		</Placemark>
		<Placemark>
			<name><![CDATA[Palmgrove National Park]]></name>
			<Point>
				<coordinates>149.415555555556,-24.9263888888889,0</coordinates>
			</Point>
			<Snippet></Snippet>
			<description><![CDATA[<br>Source: Wikipedia article <a href="http://en.wikipedia.org/wiki/Palmgrove_National_Park">Palmgrove National Park</a>]]></description>
		</Placemark>
		<Placemark>
			<name><![CDATA[Pin-Rigide Ecological Reserve]]></name>
			<Point>
				<coordinates>-73.8694,45.0958,0</coordinates>
			</Point>
			<Snippet></Snippet>
			<description><![CDATA[<br>Source: Wikipedia article <a href="http://en.wikipedia.org/wiki/Pin-Rigide_Ecological_Reserve">Pin-Rigide Ecological Reserve</a>]]></description>
		</Placemark>
		<Placemark>
			<name><![CDATA[Pine Hill Ecological Reserve]]></name>
			<Point>
				<coordinates>-120.990555555556,38.7194444444444,0</coordinates>
			</Point>
			<Snippet></Snippet>
			<description><![CDATA[<br>Source: Wikipedia article <a href="http://en.wikipedia.org/wiki/Pine_Hill_Ecological_Reserve">Pine Hill Ecological Reserve</a>]]></description>
		</Placemark>
		<Placemark>
			<name><![CDATA[Pinezhsky Nature Reserve]]></name>
			<Point>
				<coordinates>43.2,64.7,0</coordinates>
			</Point>
			<Snippet></Snippet>
			<description><![CDATA[<br>Source: Wikipedia article <a href="http://en.wikipedia.org/wiki/Pinezhsky_Nature_Reserve">Pinezhsky Nature Reserve</a>]]></description>
		</Placemark>
		<Placemark>
			<name><![CDATA[Pointe-Heath Ecological Reserve]]></name>
			<Point>
				<coordinates>-61.7333,49.1,0</coordinates>
			</Point>
			<Snippet></Snippet>
			<description><![CDATA[<br>Source: Wikipedia article <a href="http://en.wikipedia.org/wiki/Pointe-Heath_Ecological_Reserve">Pointe-Heath Ecological Reserve</a>]]></description>
		</Placemark>
		<Placemark>
			<name><![CDATA[Pointe-Platon Ecological Reserve]]></name>
			<Point>
				<coordinates>-71.8417,46.6625,0</coordinates>
			</Point>
			<Snippet></Snippet>
			<description><![CDATA[<br>Source: Wikipedia article <a href="http://en.wikipedia.org/wiki/Pointe-Platon_Ecological_Reserve">Pointe-Platon Ecological Reserve</a>]]></description>
		</Placemark>
		<Placemark>
			<name><![CDATA[Polistovsky Nature Reserve]]></name>
			<Point>
				<coordinates>30.5569444444444,57.1708333333333,0</coordinates>
			</Point>
			<Snippet></Snippet>
			<description><![CDATA[<br>Source: Wikipedia article <a href="http://en.wikipedia.org/wiki/Polistovsky_Nature_Reserve">Polistovsky Nature Reserve</a>]]></description>
		</Placemark>
		<Placemark>
			<name><![CDATA[Poço das Antas Biological Reserve]]></name>
			<Point>
				<coordinates>-42.282,-22.553,0</coordinates>
			</Point>
			<Snippet></Snippet>
			<description><![CDATA[<br>Source: Wikipedia article <a href="http://en.wikipedia.org/wiki/Poço_das_Antas_Biological_Reserve">Poço das Antas Biological Reserve</a>]]></description>
		</Placemark>
		<Placemark>
			<name><![CDATA[Presqu'île-Robillard Ecological Reserve]]></name>
			<Point>
				<coordinates>-74.3175,45.5111,0</coordinates>
			</Point>
			<Snippet></Snippet>
			<description><![CDATA[<br>Source: Wikipedia article <a href="http://en.wikipedia.org/wiki/Presqu'île-Robillard_Ecological_Reserve">Presqu'île-Robillard Ecological Reserve</a>]]></description>
		</Placemark>
		<Placemark>
			<name><![CDATA[Putorana Nature Reserve]]></name>
			<Point>
				<coordinates>94.1580555555556,69.0469444444444,0</coordinates>
			</Point>
			<Snippet></Snippet>
			<description><![CDATA[<br>Source: Wikipedia article <a href="http://en.wikipedia.org/wiki/Putorana_Nature_Reserve">Putorana Nature Reserve</a>]]></description>
		</Placemark>
		<Placemark>
			<name><![CDATA[Père-Louis-Marie Ecological Reserve]]></name>
			<Point>
				<coordinates>-75.8361,46.2167,0</coordinates>
			</Point>
			<Snippet></Snippet>
			<description><![CDATA[<br>Source: Wikipedia article <a href="http://en.wikipedia.org/wiki/Père-Louis-Marie_Ecological_Reserve">Père-Louis-Marie Ecological Reserve</a>]]></description>
		</Placemark>
		<Placemark>
			<name><![CDATA[Rdeysky Nature Reserve]]></name>
			<Point>
				<coordinates>30.8,57.2666666666667,0</coordinates>
			</Point>
			<Snippet></Snippet>
			<description><![CDATA[<br>Source: Wikipedia article <a href="http://en.wikipedia.org/wiki/Rdeysky_Nature_Reserve">Rdeysky Nature Reserve</a>]]></description>
		</Placemark>
		<Placemark>
			<name><![CDATA[Ristigouche Ecological Reserve]]></name>
			<Point>
				<coordinates>-66.8875,48.0361,0</coordinates>
			</Point>
			<Snippet></Snippet>
			<description><![CDATA[<br>Source: Wikipedia article <a href="http://en.wikipedia.org/wiki/Ristigouche_Ecological_Reserve">Ristigouche Ecological Reserve</a>]]></description>
		</Placemark>
		<Placemark>
			<name><![CDATA[Rivière-Rouge Ecological Reserve]]></name>
			<Point>
				<coordinates>-74.6647222222222,45.685,0</coordinates>
			</Point>
			<Snippet></Snippet>
			<description><![CDATA[<br>Source: Wikipedia article <a href="http://en.wikipedia.org/wiki/Rivière-Rouge_Ecological_Reserve">Rivière-Rouge Ecological Reserve</a>]]></description>
		</Placemark>
		<Placemark>
			<name><![CDATA[Rivière-aux-Brochets Ecological Reserve]]></name>
			<Point>
				<coordinates>-73.0881,45.0719,0</coordinates>
			</Point>
			<Snippet></Snippet>
			<description><![CDATA[<br>Source: Wikipedia article <a href="http://en.wikipedia.org/wiki/Rivière-aux-Brochets_Ecological_Reserve">Rivière-aux-Brochets Ecological Reserve</a>]]></description>
		</Placemark>
		<Placemark>
			<name><![CDATA[Robert T. Brown Nature Sanctuary]]></name>
			<Point>
				<coordinates>-88.73825,47.02549,0</coordinates>
			</Point>
			<Snippet></Snippet>
			<description><![CDATA[<br>Source: Wikipedia article <a href="http://en.wikipedia.org/wiki/Robert_T._Brown_Nature_Sanctuary">Robert T. Brown Nature Sanctuary</a>]]></description>
		</Placemark>
		<Placemark>
			<name><![CDATA[Rolland-Germain Ecological Reserve]]></name>
			<Point>
				<coordinates>-76.0819,46.6625,0</coordinates>
			</Point>
			<Snippet></Snippet>
			<description><![CDATA[<br>Source: Wikipedia article <a href="http://en.wikipedia.org/wiki/Rolland-Germain_Ecological_Reserve">Rolland-Germain Ecological Reserve</a>]]></description>
		</Placemark>
		<Placemark>
			<name><![CDATA[Ruisseau-de-l'Indien Ecological Reserve]]></name>
			<Point>
				<coordinates>-77.475,46.1236,0</coordinates>
			</Point>
			<Snippet></Snippet>
			<description><![CDATA[<br>Source: Wikipedia article <a href="http://en.wikipedia.org/wiki/Ruisseau-de-l'Indien_Ecological_Reserve">Ruisseau-de-l'Indien Ecological Reserve</a>]]></description>
		</Placemark>
		<Placemark>
			<name><![CDATA[Samuel-Brisson Ecological Reserve]]></name>
			<Point>
				<coordinates>-71.1389,45.4833,0</coordinates>
			</Point>
			<Snippet></Snippet>
			<description><![CDATA[<br>Source: Wikipedia article <a href="http://en.wikipedia.org/wiki/Samuel-Brisson_Ecological_Reserve">Samuel-Brisson Ecological Reserve</a>]]></description>
		</Placemark>
		<Placemark>
			<name><![CDATA[San Bruno Mountain Ecological Reserve]]></name>
			<Point>
				<coordinates>-122.4154,37.6857,0</coordinates>
			</Point>
			<Snippet></Snippet>
			<description><![CDATA[<br>Source: Wikipedia article <a href="http://en.wikipedia.org/wiki/San_Bruno_Mountain_Ecological_Reserve">San Bruno Mountain Ecological Reserve</a>]]></description>
		</Placemark>
		<Placemark>
			<name><![CDATA[Sandveld Nature Reserve]]></name>
			<Point>
				<coordinates>25.6333333333333,-27.7333333333333,0</coordinates>
			</Point>
			<Snippet></Snippet>
			<description><![CDATA[<br>Source: Wikipedia article <a href="http://en.wikipedia.org/wiki/Sandveld_Nature_Reserve">Sandveld Nature Reserve</a>]]></description>
		</Placemark>
		<Placemark>
			<name><![CDATA[Sandy Islands Provincial Park]]></name>
			<Point>
				<coordinates>-84.65,46.8166666666667,0</coordinates>
			</Point>
			<Snippet></Snippet>
			<description><![CDATA[<br>Source: Wikipedia article <a href="http://en.wikipedia.org/wiki/Sandy_Islands_Provincial_Park">Sandy Islands Provincial Park</a>]]></description>
		</Placemark>
		<Placemark>
			<name><![CDATA[Sary-Chelek Nature Reserve]]></name>
			<Point>
				<coordinates>71.9333333333333,41.6666666666667,0</coordinates>
			</Point>
			<Snippet></Snippet>
			<description><![CDATA[<br>Source: Wikipedia article <a href="http://en.wikipedia.org/wiki/Sary-Chelek_Nature_Reserve">Sary-Chelek Nature Reserve</a>]]></description>
		</Placemark>
		<Placemark>
			<name><![CDATA[Sarychat-Ertash State Nature Reserve]]></name>
			<Point>
				<coordinates>78.5333333333333,41.95,0</coordinates>
			</Point>
			<Snippet></Snippet>
			<description><![CDATA[<br>Source: Wikipedia article <a href="http://en.wikipedia.org/wiki/Sarychat-Ertash_State_Nature_Reserve">Sarychat-Ertash State Nature Reserve</a>]]></description>
		</Placemark>
		<Placemark>
			<name><![CDATA[Serpentine-de-Coleraine Ecological Reserve]]></name>
			<Point>
				<coordinates>-71.3733,45.9903,0</coordinates>
			</Point>
			<Snippet></Snippet>
			<description><![CDATA[<br>Source: Wikipedia article <a href="http://en.wikipedia.org/wiki/Serpentine-de-Coleraine_Ecological_Reserve">Serpentine-de-Coleraine Ecological Reserve</a>]]></description>
		</Placemark>
		<Placemark>
			<name><![CDATA[Shark Bay Marine Park]]></name>
			<Point>
				<coordinates>113.75,-25.8,0</coordinates>
			</Point>
			<Snippet></Snippet>
			<description><![CDATA[<br>Source: Wikipedia article <a href="http://en.wikipedia.org/wiki/Shark_Bay_Marine_Park">Shark Bay Marine Park</a>]]></description>
		</Placemark>
		<Placemark>
			<name><![CDATA[Sierra Gorda]]></name>
			<Point>
				<coordinates>-99.6666666666667,21.3333333333333,0</coordinates>
			</Point>
			<Snippet></Snippet>
			<description><![CDATA[<br>Source: Wikipedia article <a href="http://en.wikipedia.org/wiki/Sierra_Gorda">Sierra Gorda</a>]]></description>
		</Placemark>
		<Placemark>
			<name><![CDATA[Silabukan Protection Forest Reserve]]></name>
			<Point>
				<coordinates>118.755,5.001,0</coordinates>
			</Point>
			<Snippet></Snippet>
			<description><![CDATA[<br>Source: Wikipedia article <a href="http://en.wikipedia.org/wiki/Silabukan_Protection_Forest_Reserve">Silabukan Protection Forest Reserve</a>]]></description>
		</Placemark>
		<Placemark>
			<name><![CDATA[Simpson Desert Conservation Park]]></name>
			<Point>
				<coordinates>137.844444444444,-26.2513888888889,0</coordinates>
			</Point>
			<Snippet></Snippet>
			<description><![CDATA[<br>Source: Wikipedia article <a href="http://en.wikipedia.org/wiki/Simpson_Desert_Conservation_Park">Simpson Desert Conservation Park</a>]]></description>
		</Placemark>
		<Placemark>
			<name><![CDATA[Spit Nature Conservation Reserve]]></name>
			<Point>
				<coordinates>144.519444444444,-38.0494444444444,0</coordinates>
			</Point>
			<Snippet></Snippet>
			<description><![CDATA[<br>Source: Wikipedia article <a href="http://en.wikipedia.org/wiki/Spit_Nature_Conservation_Reserve">Spit Nature Conservation Reserve</a>]]></description>
		</Placemark>
		<Placemark>
			<name><![CDATA[Srebarna Nature Reserve]]></name>
			<Point>
				<coordinates>27.0780555555556,44.1144444444444,0</coordinates>
			</Point>
			<Snippet></Snippet>
			<description><![CDATA[<br>Source: Wikipedia article <a href="http://en.wikipedia.org/wiki/Srebarna_Nature_Reserve">Srebarna Nature Reserve</a>]]></description>
		</Placemark>
		<Placemark>
			<name><![CDATA[Sterkfontein Dam Nature Reserve]]></name>
			<Point>
				<coordinates>29.0333333333333,-28.4,0</coordinates>
			</Point>
			<Snippet></Snippet>
			<description><![CDATA[<br>Source: Wikipedia article <a href="http://en.wikipedia.org/wiki/Sterkfontein_Dam_Nature_Reserve">Sterkfontein Dam Nature Reserve</a>]]></description>
		</Placemark>
		<Placemark>
			<name><![CDATA[Swiss National Park]]></name>
			<Point>
				<coordinates>10.095,46.7,0</coordinates>
			</Point>
			<Snippet></Snippet>
			<description><![CDATA[<br>Source: Wikipedia article <a href="http://en.wikipedia.org/wiki/Swiss_National_Park">Swiss National Park</a>]]></description>
		</Placemark>
		<Placemark>
			<name><![CDATA[Søraust-Svalbard Nature Reserve]]></name>
			<Point>
				<coordinates>22,78,0</coordinates>
			</Point>
			<Snippet></Snippet>
			<description><![CDATA[<br>Source: Wikipedia article <a href="http://en.wikipedia.org/wiki/Søraust-Svalbard_Nature_Reserve">Søraust-Svalbard Nature Reserve</a>]]></description>
		</Placemark>
		<Placemark>
			<name><![CDATA[Tangkoko Batuangus Nature Reserve]]></name>
			<Point>
				<coordinates>125.183333333333,1.51666666666667,0</coordinates>
			</Point>
			<Snippet></Snippet>
			<description><![CDATA[<br>Source: Wikipedia article <a href="http://en.wikipedia.org/wiki/Tangkoko_Batuangus_Nature_Reserve">Tangkoko Batuangus Nature Reserve</a>]]></description>
		</Placemark>
		<Placemark>
			<name><![CDATA[Tantaré Ecological Reserve]]></name>
			<Point>
				<coordinates>-71.5375,47.0694,0</coordinates>
			</Point>
			<Snippet></Snippet>
			<description><![CDATA[<br>Source: Wikipedia article <a href="http://en.wikipedia.org/wiki/Tantaré_Ecological_Reserve">Tantaré Ecological Reserve</a>]]></description>
		</Placemark>
		<Placemark>
			<name><![CDATA[Tarlo River National Park]]></name>
			<Point>
				<coordinates>149.926388888889,-34.5019444444444,0</coordinates>
			</Point>
			<Snippet></Snippet>
			<description><![CDATA[<br>Source: Wikipedia article <a href="http://en.wikipedia.org/wiki/Tarlo_River_National_Park">Tarlo River National Park</a>]]></description>
		</Placemark>
		<Placemark>
			<name><![CDATA[Taunton National Park]]></name>
			<Point>
				<coordinates>149.221388888889,-23.5333333333333,0</coordinates>
			</Point>
			<Snippet></Snippet>
			<description><![CDATA[<br>Source: Wikipedia article <a href="http://en.wikipedia.org/wiki/Taunton_National_Park">Taunton National Park</a>]]></description>
		</Placemark>
		<Placemark>
			<name><![CDATA[Thomas-Fortin Ecological Reserve]]></name>
			<Point>
				<coordinates>-71.0458,47.6917,0</coordinates>
			</Point>
			<Snippet></Snippet>
			<description><![CDATA[<br>Source: Wikipedia article <a href="http://en.wikipedia.org/wiki/Thomas-Fortin_Ecological_Reserve">Thomas-Fortin Ecological Reserve</a>]]></description>
		</Placemark>
		<Placemark>
			<name><![CDATA[Thomas-Sterry-Hunt International Ecological Reserve]]></name>
			<Point>
				<coordinates>-70.0389,46.5222,0</coordinates>
			</Point>
			<Snippet></Snippet>
			<description><![CDATA[<br>Source: Wikipedia article <a href="http://en.wikipedia.org/wiki/Thomas-Sterry-Hunt_International_Ecological_Reserve">Thomas-Sterry-Hunt International Ecological Reserve</a>]]></description>
		</Placemark>
		<Placemark>
			<name><![CDATA[Tourbières-de-Lanoraie Ecological Reserve]]></name>
			<Point>
				<coordinates>-73.2958,45.9972,0</coordinates>
			</Point>
			<Snippet></Snippet>
			<description><![CDATA[<br>Source: Wikipedia article <a href="http://en.wikipedia.org/wiki/Tourbières-de-Lanoraie_Ecological_Reserve">Tourbières-de-Lanoraie Ecological Reserve</a>]]></description>
		</Placemark>
		<Placemark>
			<name><![CDATA[Tsolwana Nature Reserve]]></name>
			<Point>
				<coordinates>26.5002777777778,-32.1705555555556,0</coordinates>
			</Point>
			<Snippet></Snippet>
			<description><![CDATA[<br>Source: Wikipedia article <a href="http://en.wikipedia.org/wiki/Tsolwana_Nature_Reserve">Tsolwana Nature Reserve</a>]]></description>
		</Placemark>
		<Placemark>
			<name><![CDATA[Ulandra Nature Reserve]]></name>
			<Point>
				<coordinates>147.918549,-34.816622,0</coordinates>
			</Point>
			<Snippet></Snippet>
			<description><![CDATA[<br>Source: Wikipedia article <a href="http://en.wikipedia.org/wiki/Ulandra_Nature_Reserve">Ulandra Nature Reserve</a>]]></description>
		</Placemark>
		<Placemark>
			<name><![CDATA[Ulidarra National Park]]></name>
			<Point>
				<coordinates>153.080555555556,-30.2502777777778,0</coordinates>
			</Point>
			<Snippet></Snippet>
			<description><![CDATA[<br>Source: Wikipedia article <a href="http://en.wikipedia.org/wiki/Ulidarra_National_Park">Ulidarra National Park</a>]]></description>
		</Placemark>
		<Placemark>
			<name><![CDATA[University of Wisconsin–Madison Lakeshore Nature Preserve]]></name>
			<Point>
				<coordinates>-89.425,43.0755555555556,0</coordinates>
			</Point>
			<Snippet></Snippet>
			<description><![CDATA[<br>Source: Wikipedia article <a href="http://en.wikipedia.org/wiki/University_of_Wisconsin–Madison_Lakeshore_Nature_Preserve">University of Wisconsin–Madison Lakeshore Nature Preserve</a>]]></description>
		</Placemark>
		<Placemark>
			<name><![CDATA[Upper Rock Nature Reserve]]></name>
			<Point>
				<coordinates>-5.34305555555556,36.1452777777778,0</coordinates>
			</Point>
			<Snippet></Snippet>
			<description><![CDATA[<br>Source: Wikipedia article <a href="http://en.wikipedia.org/wiki/Upper_Rock_Nature_Reserve">Upper Rock Nature Reserve</a>]]></description>
		</Placemark>
		<Placemark>
			<name><![CDATA[Vallée-du-Ruiter Ecological Reserve]]></name>
			<Point>
				<coordinates>-72.4319,45.0986,0</coordinates>
			</Point>
			<Snippet></Snippet>
			<description><![CDATA[<br>Source: Wikipedia article <a href="http://en.wikipedia.org/wiki/Vallée-du-Ruiter_Ecological_Reserve">Vallée-du-Ruiter Ecological Reserve</a>]]></description>
		</Placemark>
		<Placemark>
			<name><![CDATA[Victor-A.-Huard Ecological Reserve]]></name>
			<Point>
				<coordinates>-71.254,48.2161,0</coordinates>
			</Point>
			<Snippet></Snippet>
			<description><![CDATA[<br>Source: Wikipedia article <a href="http://en.wikipedia.org/wiki/Victor-A.-Huard_Ecological_Reserve">Victor-A.-Huard Ecological Reserve</a>]]></description>
		</Placemark>
		<Placemark>
			<name><![CDATA[Vieux-Arbres Ecological Reserve]]></name>
			<Point>
				<coordinates>-79.2542,48.4639,0</coordinates>
			</Point>
			<Snippet></Snippet>
			<description><![CDATA[<br>Source: Wikipedia article <a href="http://en.wikipedia.org/wiki/Vieux-Arbres_Ecological_Reserve">Vieux-Arbres Ecological Reserve</a>]]></description>
		</Placemark>
		<Placemark>
			<name><![CDATA[Vishera Nature Reserve]]></name>
			<Point>
				<coordinates>59.2172222222222,61.4861111111111,0</coordinates>
			</Point>
			<Snippet></Snippet>
			<description><![CDATA[<br>Source: Wikipedia article <a href="http://en.wikipedia.org/wiki/Vishera_Nature_Reserve">Vishera Nature Reserve</a>]]></description>
		</Placemark>
		<Placemark>
			<name><![CDATA[Wee Jasper Nature Reserve]]></name>
			<Point>
				<coordinates>148.6584,-35.1077,0</coordinates>
			</Point>
			<Snippet></Snippet>
			<description><![CDATA[<br>Source: Wikipedia article <a href="http://en.wikipedia.org/wiki/Wee_Jasper_Nature_Reserve">Wee Jasper Nature Reserve</a>]]></description>
		</Placemark>
		<Placemark>
			<name><![CDATA[William-Baldwin Ecological Reserve]]></name>
			<Point>
				<coordinates>-78.4028,48.9181,0</coordinates>
			</Point>
			<Snippet></Snippet>
			<description><![CDATA[<br>Source: Wikipedia article <a href="http://en.wikipedia.org/wiki/William-Baldwin_Ecological_Reserve">William-Baldwin Ecological Reserve</a>]]></description>
		</Placemark>
		<Placemark>
			<name><![CDATA[Witless Bay Ecological Reserve]]></name>
			<Point>
				<coordinates>-52.7908333333333,47.2297222222222,0</coordinates>
			</Point>
			<Snippet></Snippet>
			<description><![CDATA[<br>Source: Wikipedia article <a href="http://en.wikipedia.org/wiki/Witless_Bay_Ecological_Reserve">Witless Bay Ecological Reserve</a>]]></description>
		</Placemark>
		<Placemark>
			<name><![CDATA[Wreck Island]]></name>
			<Point>
				<coordinates>151.95,-23.3333333333333,0</coordinates>
			</Point>
			<Snippet></Snippet>
			<description><![CDATA[<br>Source: Wikipedia article <a href="http://en.wikipedia.org/wiki/Wreck_Island">Wreck Island</a>]]></description>
		</Placemark>
		<Placemark>
			<name><![CDATA[Yellingbo Nature Conservation Reserve]]></name>
			<Point>
				<coordinates>145.483333333333,-37.8333333333333,0</coordinates>
			</Point>
			<Snippet></Snippet>
			<description><![CDATA[<br>Source: Wikipedia article <a href="http://en.wikipedia.org/wiki/Yellingbo_Nature_Conservation_Reserve">Yellingbo Nature Conservation Reserve</a>]]></description>
		</Placemark>
		<Placemark>
			<name><![CDATA[Åkervika]]></name>
			<Point>
				<coordinates>11.111,60.7923,0</coordinates>
			</Point>
			<Snippet></Snippet>
			<description><![CDATA[<br>Source: Wikipedia article <a href="http://en.wikipedia.org/wiki/Åkervika">Åkervika</a>]]></description>
		</Placemark>
		<Placemark>
			<name><![CDATA[Érablière-du-Trente-et-Un-Milles Ecological Reserve]]></name>
			<Point>
				<coordinates>-75.8583,46.15,0</coordinates>
			</Point>
			<Snippet></Snippet>
			<description><![CDATA[<br>Source: Wikipedia article <a href="http://en.wikipedia.org/wiki/Érablière-du-Trente-et-Un-Milles_Ecological_Reserve">Érablière-du-Trente-et-Un-Milles Ecological Reserve</a>]]></description>
		</Placemark>
		<Placemark>
			<name><![CDATA[Île-Brion Ecological Reserve]]></name>
			<Point>
				<coordinates>-61.4792,47.7889,0</coordinates>
			</Point>
			<Snippet></Snippet>
			<description><![CDATA[<br>Source: Wikipedia article <a href="http://en.wikipedia.org/wiki/Île-Brion_Ecological_Reserve">Île-Brion Ecological Reserve</a>]]></description>
		</Placemark>
		<Placemark>
			<name><![CDATA[Île-Garth Ecological Reserve]]></name>
			<Point>
				<coordinates>-73.7622,45.6567,0</coordinates>
			</Point>
			<Snippet></Snippet>
			<description><![CDATA[<br>Source: Wikipedia article <a href="http://en.wikipedia.org/wiki/Île-Garth_Ecological_Reserve">Île-Garth Ecological Reserve</a>]]></description>
		</Placemark>
		<Placemark>
			<name><![CDATA[Îles-Avelle-Wight-et-Hiam Ecological Reserve]]></name>
			<Point>
				<coordinates>-73.9958,45.4,0</coordinates>
			</Point>
			<Snippet></Snippet>
			<description><![CDATA[<br>Source: Wikipedia article <a href="http://en.wikipedia.org/wiki/Îles-Avelle-Wight-et-Hiam_Ecological_Reserve">Îles-Avelle-Wight-et-Hiam Ecological Reserve</a>]]></description>
		</Placemark>
</Document>
</kml>
