<?xml version="1.0" encoding="UTF-8"?>
<kml xmlns="http://earth.google.com/kml/2.1">
<Document>
	<name><![CDATA[Category:IUCN Category Ib]]></name>
	<open>1</open>
		<Placemark>
			<name><![CDATA[Abashiri Quasi-National Park]]></name>
			<Point>
				<coordinates>144.579722,43.890556,0</coordinates>
			</Point>
			<Snippet></Snippet>
			<description><![CDATA[<br>Source: Wikipedia article <a href="http://en.wikipedia.org/wiki/Abashiri_Quasi-National_Park">Abashiri Quasi-National Park</a>]]></description>
		</Placemark>
		<Placemark>
			<name><![CDATA[Absaroka-Beartooth Wilderness]]></name>
			<Point>
				<coordinates>-109.933333333333,45.1,0</coordinates>
			</Point>
			<Snippet></Snippet>
			<description><![CDATA[<br>Source: Wikipedia article <a href="http://en.wikipedia.org/wiki/Absaroka-Beartooth_Wilderness">Absaroka-Beartooth Wilderness</a>]]></description>
		</Placemark>
		<Placemark>
			<name><![CDATA[Agassiz Wilderness]]></name>
			<Point>
				<coordinates>-95.8833333333333,48.3447222222222,0</coordinates>
			</Point>
			<Snippet></Snippet>
			<description><![CDATA[<br>Source: Wikipedia article <a href="http://en.wikipedia.org/wiki/Agassiz_Wilderness">Agassiz Wilderness</a>]]></description>
		</Placemark>
		<Placemark>
			<name><![CDATA[Agua Tibia Wilderness]]></name>
			<Point>
				<coordinates>-116.9858598,33.420865,0</coordinates>
			</Point>
			<Snippet></Snippet>
			<description><![CDATA[<br>Source: Wikipedia article <a href="http://en.wikipedia.org/wiki/Agua_Tibia_Wilderness">Agua Tibia Wilderness</a>]]></description>
		</Placemark>
		<Placemark>
			<name><![CDATA[Akiyoshidai Quasi-National Park]]></name>
			<Point>
				<coordinates>131.3027,34.232,0</coordinates>
			</Point>
			<Snippet></Snippet>
			<description><![CDATA[<br>Source: Wikipedia article <a href="http://en.wikipedia.org/wiki/Akiyoshidai_Quasi-National_Park">Akiyoshidai Quasi-National Park</a>]]></description>
		</Placemark>
		<Placemark>
			<name><![CDATA[Alafia River State Park]]></name>
			<Point>
				<coordinates>-82.1447361111111,27.7801138888889,0</coordinates>
			</Point>
			<Snippet></Snippet>
			<description><![CDATA[<br>Source: Wikipedia article <a href="http://en.wikipedia.org/wiki/Alafia_River_State_Park">Alafia River State Park</a>]]></description>
		</Placemark>
		<Placemark>
			<name><![CDATA[Alakai Wilderness Preserve]]></name>
			<Point>
				<coordinates>-159.558333333333,22.1083333333333,0</coordinates>
			</Point>
			<Snippet></Snippet>
			<description><![CDATA[<br>Source: Wikipedia article <a href="http://en.wikipedia.org/wiki/Alakai_Wilderness_Preserve">Alakai Wilderness Preserve</a>]]></description>
		</Placemark>
		<Placemark>
			<name><![CDATA[Alam-Pedja Nature Reserve]]></name>
			<Point>
				<coordinates>26.1697222222222,58.4738888888889,0</coordinates>
			</Point>
			<Snippet></Snippet>
			<description><![CDATA[<br>Source: Wikipedia article <a href="http://en.wikipedia.org/wiki/Alam-Pedja_Nature_Reserve">Alam-Pedja Nature Reserve</a>]]></description>
		</Placemark>
		<Placemark>
			<name><![CDATA[Albany Pine Bush]]></name>
			<Point>
				<coordinates>-73.84031,42.70376,0</coordinates>
			</Point>
			<Snippet></Snippet>
			<description><![CDATA[<br>Source: Wikipedia article <a href="http://en.wikipedia.org/wiki/Albany_Pine_Bush">Albany Pine Bush</a>]]></description>
		</Placemark>
		<Placemark>
			<name><![CDATA[Aldo Leopold Wilderness]]></name>
			<Point>
				<coordinates>-107.855,33.1069444444444,0</coordinates>
			</Point>
			<Snippet></Snippet>
			<description><![CDATA[<br>Source: Wikipedia article <a href="http://en.wikipedia.org/wiki/Aldo_Leopold_Wilderness">Aldo Leopold Wilderness</a>]]></description>
		</Placemark>
		<Placemark>
			<name><![CDATA[Aleutian Islands Wilderness]]></name>
			<Point>
				<coordinates>-173.541944444444,52.09,0</coordinates>
			</Point>
			<Snippet></Snippet>
			<description><![CDATA[<br>Source: Wikipedia article <a href="http://en.wikipedia.org/wiki/Aleutian_Islands_Wilderness">Aleutian Islands Wilderness</a>]]></description>
		</Placemark>
		<Placemark>
			<name><![CDATA[Alexander Springs Wilderness]]></name>
			<Point>
				<coordinates>-81.4702777777778,29.0711111111111,0</coordinates>
			</Point>
			<Snippet></Snippet>
			<description><![CDATA[<br>Source: Wikipedia article <a href="http://en.wikipedia.org/wiki/Alexander_Springs_Wilderness">Alexander Springs Wilderness</a>]]></description>
		</Placemark>
		<Placemark>
			<name><![CDATA[Allegheny Islands Wilderness]]></name>
			<Point>
				<coordinates>-79.315453,41.7513364,0</coordinates>
			</Point>
			<Snippet></Snippet>
			<description><![CDATA[<br>Source: Wikipedia article <a href="http://en.wikipedia.org/wiki/Allegheny_Islands_Wilderness">Allegheny Islands Wilderness</a>]]></description>
		</Placemark>
		<Placemark>
			<name><![CDATA[Alpine Lakes Wilderness]]></name>
			<Point>
				<coordinates>-121.178333333333,47.5655555555556,0</coordinates>
			</Point>
			<Snippet></Snippet>
			<description><![CDATA[<br>Source: Wikipedia article <a href="http://en.wikipedia.org/wiki/Alpine_Lakes_Wilderness">Alpine Lakes Wilderness</a>]]></description>
		</Placemark>
		<Placemark>
			<name><![CDATA[Alta Toquima Wilderness]]></name>
			<Point>
				<coordinates>-116.9239705,38.7888199,0</coordinates>
			</Point>
			<Snippet></Snippet>
			<description><![CDATA[<br>Source: Wikipedia article <a href="http://en.wikipedia.org/wiki/Alta_Toquima_Wilderness">Alta Toquima Wilderness</a>]]></description>
		</Placemark>
		<Placemark>
			<name><![CDATA[Amelia Island State Park]]></name>
			<Point>
				<coordinates>-81.4380555555556,30.53,0</coordinates>
			</Point>
			<Snippet></Snippet>
			<description><![CDATA[<br>Source: Wikipedia article <a href="http://en.wikipedia.org/wiki/Amelia_Island_State_Park">Amelia Island State Park</a>]]></description>
		</Placemark>
		<Placemark>
			<name><![CDATA[Anaconda-Pintler Wilderness]]></name>
			<Point>
				<coordinates>-113.466666666667,45.95,0</coordinates>
			</Point>
			<Snippet></Snippet>
			<description><![CDATA[<br>Source: Wikipedia article <a href="http://en.wikipedia.org/wiki/Anaconda-Pintler_Wilderness">Anaconda-Pintler Wilderness</a>]]></description>
		</Placemark>
		<Placemark>
			<name><![CDATA[Anclote Key Preserve State Park]]></name>
			<Point>
				<coordinates>-82.8511111111111,28.1930555555556,0</coordinates>
			</Point>
			<Snippet></Snippet>
			<description><![CDATA[<br>Source: Wikipedia article <a href="http://en.wikipedia.org/wiki/Anclote_Key_Preserve_State_Park">Anclote Key Preserve State Park</a>]]></description>
		</Placemark>
		<Placemark>
			<name><![CDATA[Andreafsky Wilderness]]></name>
			<Point>
				<coordinates>-162.6,62.6166666666667,0</coordinates>
			</Point>
			<Snippet></Snippet>
			<description><![CDATA[<br>Source: Wikipedia article <a href="http://en.wikipedia.org/wiki/Andreafsky_Wilderness">Andreafsky Wilderness</a>]]></description>
		</Placemark>
		<Placemark>
			<name><![CDATA[Ansel Adams Wilderness]]></name>
			<Point>
				<coordinates>-119.183333333333,37.6833333333333,0</coordinates>
			</Point>
			<Snippet></Snippet>
			<description><![CDATA[<br>Source: Wikipedia article <a href="http://en.wikipedia.org/wiki/Ansel_Adams_Wilderness">Ansel Adams Wilderness</a>]]></description>
		</Placemark>
		<Placemark>
			<name><![CDATA[Apache Creek Wilderness]]></name>
			<Point>
				<coordinates>-112.903888888889,34.8783333333333,0</coordinates>
			</Point>
			<Snippet></Snippet>
			<description><![CDATA[<br>Source: Wikipedia article <a href="http://en.wikipedia.org/wiki/Apache_Creek_Wilderness">Apache Creek Wilderness</a>]]></description>
		</Placemark>
		<Placemark>
			<name><![CDATA[Apache Kid Wilderness]]></name>
			<Point>
				<coordinates>-107.425,33.6511111111111,0</coordinates>
			</Point>
			<Snippet></Snippet>
			<description><![CDATA[<br>Source: Wikipedia article <a href="http://en.wikipedia.org/wiki/Apache_Kid_Wilderness">Apache Kid Wilderness</a>]]></description>
		</Placemark>
		<Placemark>
			<name><![CDATA[Aravaipa Canyon Wilderness]]></name>
			<Point>
				<coordinates>-110.4875955,32.8970102,0</coordinates>
			</Point>
			<Snippet></Snippet>
			<description><![CDATA[<br>Source: Wikipedia article <a href="http://en.wikipedia.org/wiki/Aravaipa_Canyon_Wilderness">Aravaipa Canyon Wilderness</a>]]></description>
		</Placemark>
		<Placemark>
			<name><![CDATA[Arc Dome Wilderness]]></name>
			<Point>
				<coordinates>-117.3228693,38.8032635,0</coordinates>
			</Point>
			<Snippet></Snippet>
			<description><![CDATA[<br>Source: Wikipedia article <a href="http://en.wikipedia.org/wiki/Arc_Dome_Wilderness">Arc Dome Wilderness</a>]]></description>
		</Placemark>
		<Placemark>
			<name><![CDATA[Arrow Canyon Wilderness]]></name>
			<Point>
				<coordinates>-114.866666666667,36.7,0</coordinates>
			</Point>
			<Snippet></Snippet>
			<description><![CDATA[<br>Source: Wikipedia article <a href="http://en.wikipedia.org/wiki/Arrow_Canyon_Wilderness">Arrow Canyon Wilderness</a>]]></description>
		</Placemark>
		<Placemark>
			<name><![CDATA[Ashdown Gorge Wilderness]]></name>
			<Point>
				<coordinates>-112.8888329,37.6438664,0</coordinates>
			</Point>
			<Snippet></Snippet>
			<description><![CDATA[<br>Source: Wikipedia article <a href="http://en.wikipedia.org/wiki/Ashdown_Gorge_Wilderness">Ashdown Gorge Wilderness</a>]]></description>
		</Placemark>
		<Placemark>
			<name><![CDATA[Aubrey Peak Wilderness]]></name>
			<Point>
				<coordinates>-113.8146608,34.401405,0</coordinates>
			</Point>
			<Snippet></Snippet>
			<description><![CDATA[<br>Source: Wikipedia article <a href="http://en.wikipedia.org/wiki/Aubrey_Peak_Wilderness">Aubrey Peak Wilderness</a>]]></description>
		</Placemark>
		<Placemark>
			<name><![CDATA[Baboquivari Peak Wilderness]]></name>
			<Point>
				<coordinates>-111.5756642,31.7914724,0</coordinates>
			</Point>
			<Snippet></Snippet>
			<description><![CDATA[<br>Source: Wikipedia article <a href="http://en.wikipedia.org/wiki/Baboquivari_Peak_Wilderness">Baboquivari Peak Wilderness</a>]]></description>
		</Placemark>
		<Placemark>
			<name><![CDATA[Badger Creek Wilderness]]></name>
			<Point>
				<coordinates>-121.476388888889,45.3061111111111,0</coordinates>
			</Point>
			<Snippet></Snippet>
			<description><![CDATA[<br>Source: Wikipedia article <a href="http://en.wikipedia.org/wiki/Badger_Creek_Wilderness">Badger Creek Wilderness</a>]]></description>
		</Placemark>
		<Placemark>
			<name><![CDATA[Badlands Wilderness]]></name>
			<Point>
				<coordinates>-102.350555555556,43.8355555555556,0</coordinates>
			</Point>
			<Snippet></Snippet>
			<description><![CDATA[<br>Source: Wikipedia article <a href="http://en.wikipedia.org/wiki/Badlands_Wilderness">Badlands Wilderness</a>]]></description>
		</Placemark>
		<Placemark>
			<name><![CDATA[Bald Knob Wilderness]]></name>
			<Point>
				<coordinates>-89.3775,37.5505555555556,0</coordinates>
			</Point>
			<Snippet></Snippet>
			<description><![CDATA[<br>Source: Wikipedia article <a href="http://en.wikipedia.org/wiki/Bald_Knob_Wilderness">Bald Knob Wilderness</a>]]></description>
		</Placemark>
		<Placemark>
			<name><![CDATA[Bald Mountain Wilderness]]></name>
			<Point>
				<coordinates>-115.322113,39.077309,0</coordinates>
			</Point>
			<Snippet></Snippet>
			<description><![CDATA[<br>Source: Wikipedia article <a href="http://en.wikipedia.org/wiki/Bald_Mountain_Wilderness">Bald Mountain Wilderness</a>]]></description>
		</Placemark>
		<Placemark>
			<name><![CDATA[Bald Point State Park]]></name>
			<Point>
				<coordinates>-84.3413888888889,29.9475,0</coordinates>
			</Point>
			<Snippet></Snippet>
			<description><![CDATA[<br>Source: Wikipedia article <a href="http://en.wikipedia.org/wiki/Bald_Point_State_Park">Bald Point State Park</a>]]></description>
		</Placemark>
		<Placemark>
			<name><![CDATA[Bald River Gorge Wilderness]]></name>
			<Point>
				<coordinates>-84.17222,35.30722,0</coordinates>
			</Point>
			<Snippet></Snippet>
			<description><![CDATA[<br>Source: Wikipedia article <a href="http://en.wikipedia.org/wiki/Bald_River_Gorge_Wilderness">Bald River Gorge Wilderness</a>]]></description>
		</Placemark>
		<Placemark>
			<name><![CDATA[Barrington Tops National Park]]></name>
			<Point>
				<coordinates>151.493611111111,-32.0527777777778,0</coordinates>
			</Point>
			<Snippet></Snippet>
			<description><![CDATA[<br>Source: Wikipedia article <a href="http://en.wikipedia.org/wiki/Barrington_Tops_National_Park">Barrington Tops National Park</a>]]></description>
		</Placemark>
		<Placemark>
			<name><![CDATA[Baxter State Park]]></name>
			<Point>
				<coordinates>-68.9333333333333,46.0333333333333,0</coordinates>
			</Point>
			<Snippet></Snippet>
			<description><![CDATA[<br>Source: Wikipedia article <a href="http://en.wikipedia.org/wiki/Baxter_State_Park">Baxter State Park</a>]]></description>
		</Placemark>
		<Placemark>
			<name><![CDATA[Bay Creek Wilderness]]></name>
			<Point>
				<coordinates>-88.6225,37.5525,0</coordinates>
			</Point>
			<Snippet></Snippet>
			<description><![CDATA[<br>Source: Wikipedia article <a href="http://en.wikipedia.org/wiki/Bay_Creek_Wilderness">Bay Creek Wilderness</a>]]></description>
		</Placemark>
		<Placemark>
			<name><![CDATA[Bear Wallow Wilderness]]></name>
			<Point>
				<coordinates>-109.4492507,33.6022756,0</coordinates>
			</Point>
			<Snippet></Snippet>
			<description><![CDATA[<br>Source: Wikipedia article <a href="http://en.wikipedia.org/wiki/Bear_Wallow_Wilderness">Bear Wallow Wilderness</a>]]></description>
		</Placemark>
		<Placemark>
			<name><![CDATA[Beartrap Canyon Wilderness]]></name>
			<Point>
				<coordinates>-113.0889,37.4257,0</coordinates>
			</Point>
			<Snippet></Snippet>
			<description><![CDATA[<br>Source: Wikipedia article <a href="http://en.wikipedia.org/wiki/Beartrap_Canyon_Wilderness">Beartrap Canyon Wilderness</a>]]></description>
		</Placemark>
		<Placemark>
			<name><![CDATA[Beaver Basin Wilderness]]></name>
			<Point>
				<coordinates>-86.3216666666667,46.5625,0</coordinates>
			</Point>
			<Snippet></Snippet>
			<description><![CDATA[<br>Source: Wikipedia article <a href="http://en.wikipedia.org/wiki/Beaver_Basin_Wilderness">Beaver Basin Wilderness</a>]]></description>
		</Placemark>
		<Placemark>
			<name><![CDATA[Beaver Creek Wilderness]]></name>
			<Point>
				<coordinates>-84.4430555555556,36.9455555555556,0</coordinates>
			</Point>
			<Snippet></Snippet>
			<description><![CDATA[<br>Source: Wikipedia article <a href="http://en.wikipedia.org/wiki/Beaver_Creek_Wilderness">Beaver Creek Wilderness</a>]]></description>
		</Placemark>
		<Placemark>
			<name><![CDATA[Beaver Dam Mountains Wilderness]]></name>
			<Point>
				<coordinates>-113.7688531,36.9977565,0</coordinates>
			</Point>
			<Snippet></Snippet>
			<description><![CDATA[<br>Source: Wikipedia article <a href="http://en.wikipedia.org/wiki/Beaver_Dam_Mountains_Wilderness">Beaver Dam Mountains Wilderness</a>]]></description>
		</Placemark>
		<Placemark>
			<name><![CDATA[Becharof National Wildlife Refuge]]></name>
			<Point>
				<coordinates>-156.25,58,0</coordinates>
			</Point>
			<Snippet></Snippet>
			<description><![CDATA[<br>Source: Wikipedia article <a href="http://en.wikipedia.org/wiki/Becharof_National_Wildlife_Refuge">Becharof National Wildlife Refuge</a>]]></description>
		</Placemark>
		<Placemark>
			<name><![CDATA[Becharof Wilderness]]></name>
			<Point>
				<coordinates>-155.655555555556,57.9194444444444,0</coordinates>
			</Point>
			<Snippet></Snippet>
			<description><![CDATA[<br>Source: Wikipedia article <a href="http://en.wikipedia.org/wiki/Becharof_Wilderness">Becharof Wilderness</a>]]></description>
		</Placemark>
		<Placemark>
			<name><![CDATA[Becky Peak Wilderness]]></name>
			<Point>
				<coordinates>-114.585,39.9852777777778,0</coordinates>
			</Point>
			<Snippet></Snippet>
			<description><![CDATA[<br>Source: Wikipedia article <a href="http://en.wikipedia.org/wiki/Becky_Peak_Wilderness">Becky Peak Wilderness</a>]]></description>
		</Placemark>
		<Placemark>
			<name><![CDATA[Bell Mountain Wilderness]]></name>
			<Point>
				<coordinates>-90.8769444444444,37.6313888888889,0</coordinates>
			</Point>
			<Snippet></Snippet>
			<description><![CDATA[<br>Source: Wikipedia article <a href="http://en.wikipedia.org/wiki/Bell_Mountain_Wilderness">Bell Mountain Wilderness</a>]]></description>
		</Placemark>
		<Placemark>
			<name><![CDATA[Bering Sea Wilderness]]></name>
			<Point>
				<coordinates>-172.701111111111,60.4233333333333,0</coordinates>
			</Point>
			<Snippet></Snippet>
			<description><![CDATA[<br>Source: Wikipedia article <a href="http://en.wikipedia.org/wiki/Bering_Sea_Wilderness">Bering Sea Wilderness</a>]]></description>
		</Placemark>
		<Placemark>
			<name><![CDATA[Big Draft Wilderness]]></name>
			<Point>
				<coordinates>-80.2652777777778,37.9208333333333,0</coordinates>
			</Point>
			<Snippet></Snippet>
			<description><![CDATA[<br>Source: Wikipedia article <a href="http://en.wikipedia.org/wiki/Big_Draft_Wilderness">Big Draft Wilderness</a>]]></description>
		</Placemark>
		<Placemark>
			<name><![CDATA[Big Draft Wilderness]]></name>
			<Point>
				<coordinates>-80.3013888888889,37.8825,0</coordinates>
			</Point>
			<Snippet></Snippet>
			<description><![CDATA[<br>Source: Wikipedia article <a href="http://en.wikipedia.org/wiki/Big_Draft_Wilderness">Big Draft Wilderness</a>]]></description>
		</Placemark>
		<Placemark>
			<name><![CDATA[Big Draft Wilderness]]></name>
			<Point>
				<coordinates>-80.3258333333333,37.8916666666667,0</coordinates>
			</Point>
			<Snippet></Snippet>
			<description><![CDATA[<br>Source: Wikipedia article <a href="http://en.wikipedia.org/wiki/Big_Draft_Wilderness">Big Draft Wilderness</a>]]></description>
		</Placemark>
		<Placemark>
			<name><![CDATA[Big Frog Wilderness]]></name>
			<Point>
				<coordinates>-84.5416666666667,34.9936111111111,0</coordinates>
			</Point>
			<Snippet></Snippet>
			<description><![CDATA[<br>Source: Wikipedia article <a href="http://en.wikipedia.org/wiki/Big_Frog_Wilderness">Big Frog Wilderness</a>]]></description>
		</Placemark>
		<Placemark>
			<name><![CDATA[Big Gum Swamp Wilderness]]></name>
			<Point>
				<coordinates>-82.4408333333333,30.3413888888889,0</coordinates>
			</Point>
			<Snippet></Snippet>
			<description><![CDATA[<br>Source: Wikipedia article <a href="http://en.wikipedia.org/wiki/Big_Gum_Swamp_Wilderness">Big Gum Swamp Wilderness</a>]]></description>
		</Placemark>
		<Placemark>
			<name><![CDATA[Big Island Lake Wilderness]]></name>
			<Point>
				<coordinates>-86.5097222222222,46.2202777777778,0</coordinates>
			</Point>
			<Snippet></Snippet>
			<description><![CDATA[<br>Source: Wikipedia article <a href="http://en.wikipedia.org/wiki/Big_Island_Lake_Wilderness">Big Island Lake Wilderness</a>]]></description>
		</Placemark>
		<Placemark>
			<name><![CDATA[Big Jacks Creek Wilderness]]></name>
			<Point>
				<coordinates>-116.079444444444,42.4619444444444,0</coordinates>
			</Point>
			<Snippet></Snippet>
			<description><![CDATA[<br>Source: Wikipedia article <a href="http://en.wikipedia.org/wiki/Big_Jacks_Creek_Wilderness">Big Jacks Creek Wilderness</a>]]></description>
		</Placemark>
		<Placemark>
			<name><![CDATA[Big Laurel Branch Wilderness]]></name>
			<Point>
				<coordinates>-82.08694,36.35056,0</coordinates>
			</Point>
			<Snippet></Snippet>
			<description><![CDATA[<br>Source: Wikipedia article <a href="http://en.wikipedia.org/wiki/Big_Laurel_Branch_Wilderness">Big Laurel Branch Wilderness</a>]]></description>
		</Placemark>
		<Placemark>
			<name><![CDATA[Big Talbot Island State Park]]></name>
			<Point>
				<coordinates>-81.44,30.4830555555556,0</coordinates>
			</Point>
			<Snippet></Snippet>
			<description><![CDATA[<br>Source: Wikipedia article <a href="http://en.wikipedia.org/wiki/Big_Talbot_Island_State_Park">Big Talbot Island State Park</a>]]></description>
		</Placemark>
		<Placemark>
			<name><![CDATA[Bigelow Cholla Garden Wilderness]]></name>
			<Point>
				<coordinates>-114.8896934,34.8355572,0</coordinates>
			</Point>
			<Snippet></Snippet>
			<description><![CDATA[<br>Source: Wikipedia article <a href="http://en.wikipedia.org/wiki/Bigelow_Cholla_Garden_Wilderness">Bigelow Cholla Garden Wilderness</a>]]></description>
		</Placemark>
		<Placemark>
			<name><![CDATA[Billies Bay Wilderness]]></name>
			<Point>
				<coordinates>-81.5875,29.0941666666667,0</coordinates>
			</Point>
			<Snippet></Snippet>
			<description><![CDATA[<br>Source: Wikipedia article <a href="http://en.wikipedia.org/wiki/Billies_Bay_Wilderness">Billies Bay Wilderness</a>]]></description>
		</Placemark>
		<Placemark>
			<name><![CDATA[Birkhead Mountains Wilderness]]></name>
			<Point>
				<coordinates>-79.9216666666667,35.6027777777778,0</coordinates>
			</Point>
			<Snippet></Snippet>
			<description><![CDATA[<br>Source: Wikipedia article <a href="http://en.wikipedia.org/wiki/Birkhead_Mountains_Wilderness">Birkhead Mountains Wilderness</a>]]></description>
		</Placemark>
		<Placemark>
			<name><![CDATA[Bisti/De-Na-Zin Wilderness]]></name>
			<Point>
				<coordinates>-108.118055555556,36.3044444444444,0</coordinates>
			</Point>
			<Snippet></Snippet>
			<description><![CDATA[<br>Source: Wikipedia article <a href="http://en.wikipedia.org/wiki/Bisti/De-Na-Zin_Wilderness">Bisti/De-Na-Zin Wilderness</a>]]></description>
		</Placemark>
		<Placemark>
			<name><![CDATA[Black Canyon Wilderness (Nevada)]]></name>
			<Point>
				<coordinates>-114.716666666667,35.9,0</coordinates>
			</Point>
			<Snippet></Snippet>
			<description><![CDATA[<br>Source: Wikipedia article <a href="http://en.wikipedia.org/wiki/Black_Canyon_Wilderness_(Nevada)">Black Canyon Wilderness (Nevada)</a>]]></description>
		</Placemark>
		<Placemark>
			<name><![CDATA[Black Canyon Wilderness (Oregon)]]></name>
			<Point>
				<coordinates>-119.654166666667,44.3369444444444,0</coordinates>
			</Point>
			<Snippet></Snippet>
			<description><![CDATA[<br>Source: Wikipedia article <a href="http://en.wikipedia.org/wiki/Black_Canyon_Wilderness_(Oregon)">Black Canyon Wilderness (Oregon)</a>]]></description>
		</Placemark>
		<Placemark>
			<name><![CDATA[Black Canyon Wilderness Study Area (Gooding County, Idaho)]]></name>
			<Point>
				<coordinates>-114.736687,43.136273,0</coordinates>
			</Point>
			<Snippet></Snippet>
			<description><![CDATA[<br>Source: Wikipedia article <a href="http://en.wikipedia.org/wiki/Black_Canyon_Wilderness_Study_Area_(Gooding_County,_Idaho)">Black Canyon Wilderness Study Area (Gooding County, Idaho)</a>]]></description>
		</Placemark>
		<Placemark>
			<name><![CDATA[Black Creek Wilderness]]></name>
			<Point>
				<coordinates>-89.0280555555556,30.9797222222222,0</coordinates>
			</Point>
			<Snippet></Snippet>
			<description><![CDATA[<br>Source: Wikipedia article <a href="http://en.wikipedia.org/wiki/Black_Creek_Wilderness">Black Creek Wilderness</a>]]></description>
		</Placemark>
		<Placemark>
			<name><![CDATA[Black Elk Wilderness]]></name>
			<Point>
				<coordinates>-103.533333333333,43.85,0</coordinates>
			</Point>
			<Snippet></Snippet>
			<description><![CDATA[<br>Source: Wikipedia article <a href="http://en.wikipedia.org/wiki/Black_Elk_Wilderness">Black Elk Wilderness</a>]]></description>
		</Placemark>
		<Placemark>
			<name><![CDATA[Black Fork Mountain Wilderness]]></name>
			<Point>
				<coordinates>-94.4269444444444,34.7155555555556,0</coordinates>
			</Point>
			<Snippet></Snippet>
			<description><![CDATA[<br>Source: Wikipedia article <a href="http://en.wikipedia.org/wiki/Black_Fork_Mountain_Wilderness">Black Fork Mountain Wilderness</a>]]></description>
		</Placemark>
		<Placemark>
			<name><![CDATA[Black Ridge Canyons Wilderness]]></name>
			<Point>
				<coordinates>-108.9306622,39.1052605,0</coordinates>
			</Point>
			<Snippet></Snippet>
			<description><![CDATA[<br>Source: Wikipedia article <a href="http://en.wikipedia.org/wiki/Black_Ridge_Canyons_Wilderness">Black Ridge Canyons Wilderness</a>]]></description>
		</Placemark>
		<Placemark>
			<name><![CDATA[Black Rock Desert Wilderness]]></name>
			<Point>
				<coordinates>-118.756001666667,41.2168441666667,0</coordinates>
			</Point>
			<Snippet></Snippet>
			<description><![CDATA[<br>Source: Wikipedia article <a href="http://en.wikipedia.org/wiki/Black_Rock_Desert_Wilderness">Black Rock Desert Wilderness</a>]]></description>
		</Placemark>
		<Placemark>
			<name><![CDATA[Blackjack Springs Wilderness]]></name>
			<Point>
				<coordinates>-89.08782,45.97561,0</coordinates>
			</Point>
			<Snippet></Snippet>
			<description><![CDATA[<br>Source: Wikipedia article <a href="http://en.wikipedia.org/wiki/Blackjack_Springs_Wilderness">Blackjack Springs Wilderness</a>]]></description>
		</Placemark>
		<Placemark>
			<name><![CDATA[Blackridge Wilderness]]></name>
			<Point>
				<coordinates>-113.225425663,37.3392213055,0</coordinates>
			</Point>
			<Snippet></Snippet>
			<description><![CDATA[<br>Source: Wikipedia article <a href="http://en.wikipedia.org/wiki/Blackridge_Wilderness">Blackridge Wilderness</a>]]></description>
		</Placemark>
		<Placemark>
			<name><![CDATA[Blackwater River State Park]]></name>
			<Point>
				<coordinates>-86.8780555555555,30.7069444444444,0</coordinates>
			</Point>
			<Snippet></Snippet>
			<description><![CDATA[<br>Source: Wikipedia article <a href="http://en.wikipedia.org/wiki/Blackwater_River_State_Park">Blackwater River State Park</a>]]></description>
		</Placemark>
		<Placemark>
			<name><![CDATA[Blood Mountain Wilderness]]></name>
			<Point>
				<coordinates>-83.9391666666667,34.7438888888889,0</coordinates>
			</Point>
			<Snippet></Snippet>
			<description><![CDATA[<br>Source: Wikipedia article <a href="http://en.wikipedia.org/wiki/Blood_Mountain_Wilderness">Blood Mountain Wilderness</a>]]></description>
		</Placemark>
		<Placemark>
			<name><![CDATA[Blue Range Wilderness]]></name>
			<Point>
				<coordinates>-108.933333333333,33.4,0</coordinates>
			</Point>
			<Snippet></Snippet>
			<description><![CDATA[<br>Source: Wikipedia article <a href="http://en.wikipedia.org/wiki/Blue_Range_Wilderness">Blue Range Wilderness</a>]]></description>
		</Placemark>
		<Placemark>
			<name><![CDATA[Blue Ridge Wilderness Area]]></name>
			<Point>
				<coordinates>-74.56975,43.78051,0</coordinates>
			</Point>
			<Snippet></Snippet>
			<description><![CDATA[<br>Source: Wikipedia article <a href="http://en.wikipedia.org/wiki/Blue_Ridge_Wilderness_Area">Blue Ridge Wilderness Area</a>]]></description>
		</Placemark>
		<Placemark>
			<name><![CDATA[Blue Spring State Park]]></name>
			<Point>
				<coordinates>-81.34,28.9480555555556,0</coordinates>
			</Point>
			<Snippet></Snippet>
			<description><![CDATA[<br>Source: Wikipedia article <a href="http://en.wikipedia.org/wiki/Blue_Spring_State_Park">Blue Spring State Park</a>]]></description>
		</Placemark>
		<Placemark>
			<name><![CDATA[Bob Marshall Wilderness]]></name>
			<Point>
				<coordinates>-113.066666666667,47.8166666666667,0</coordinates>
			</Point>
			<Snippet></Snippet>
			<description><![CDATA[<br>Source: Wikipedia article <a href="http://en.wikipedia.org/wiki/Bob_Marshall_Wilderness">Bob Marshall Wilderness</a>]]></description>
		</Placemark>
		<Placemark>
			<name><![CDATA[Bogoslof Wilderness]]></name>
			<Point>
				<coordinates>-168.038888888889,53.9358333333333,0</coordinates>
			</Point>
			<Snippet></Snippet>
			<description><![CDATA[<br>Source: Wikipedia article <a href="http://en.wikipedia.org/wiki/Bogoslof_Wilderness">Bogoslof Wilderness</a>]]></description>
		</Placemark>
		<Placemark>
			<name><![CDATA[Boulder Creek Wilderness]]></name>
			<Point>
				<coordinates>-122.516666666667,43.35,0</coordinates>
			</Point>
			<Snippet></Snippet>
			<description><![CDATA[<br>Source: Wikipedia article <a href="http://en.wikipedia.org/wiki/Boulder_Creek_Wilderness">Boulder Creek Wilderness</a>]]></description>
		</Placemark>
		<Placemark>
			<name><![CDATA[Boulder River Wilderness]]></name>
			<Point>
				<coordinates>-121.808333333333,48.225,0</coordinates>
			</Point>
			<Snippet></Snippet>
			<description><![CDATA[<br>Source: Wikipedia article <a href="http://en.wikipedia.org/wiki/Boulder_River_Wilderness">Boulder River Wilderness</a>]]></description>
		</Placemark>
		<Placemark>
			<name><![CDATA[Boundary Peak Wilderness]]></name>
			<Point>
				<coordinates>-118.35,37.85,0</coordinates>
			</Point>
			<Snippet></Snippet>
			<description><![CDATA[<br>Source: Wikipedia article <a href="http://en.wikipedia.org/wiki/Boundary_Peak_Wilderness">Boundary Peak Wilderness</a>]]></description>
		</Placemark>
		<Placemark>
			<name><![CDATA[Boundary Waters Canoe Area Wilderness]]></name>
			<Point>
				<coordinates>-91.2,47.8166666666667,0</coordinates>
			</Point>
			<Snippet></Snippet>
			<description><![CDATA[<br>Source: Wikipedia article <a href="http://en.wikipedia.org/wiki/Boundary_Waters_Canoe_Area_Wilderness">Boundary Waters Canoe Area Wilderness</a>]]></description>
		</Placemark>
		<Placemark>
			<name><![CDATA[Box-Death Hollow Wilderness]]></name>
			<Point>
				<coordinates>-111.6340674,37.8916538,0</coordinates>
			</Point>
			<Snippet></Snippet>
			<description><![CDATA[<br>Source: Wikipedia article <a href="http://en.wikipedia.org/wiki/Box-Death_Hollow_Wilderness">Box-Death Hollow Wilderness</a>]]></description>
		</Placemark>
		<Placemark>
			<name><![CDATA[Bradwell Bay Wilderness]]></name>
			<Point>
				<coordinates>-84.5576836,30.178812,0</coordinates>
			</Point>
			<Snippet></Snippet>
			<description><![CDATA[<br>Source: Wikipedia article <a href="http://en.wikipedia.org/wiki/Bradwell_Bay_Wilderness">Bradwell Bay Wilderness</a>]]></description>
		</Placemark>
		<Placemark>
			<name><![CDATA[Brasstown Wilderness]]></name>
			<Point>
				<coordinates>-83.81,34.8955555555556,0</coordinates>
			</Point>
			<Snippet></Snippet>
			<description><![CDATA[<br>Source: Wikipedia article <a href="http://en.wikipedia.org/wiki/Brasstown_Wilderness">Brasstown Wilderness</a>]]></description>
		</Placemark>
		<Placemark>
			<name><![CDATA[Bridge Creek Wilderness]]></name>
			<Point>
				<coordinates>-120.223611111111,44.475,0</coordinates>
			</Point>
			<Snippet></Snippet>
			<description><![CDATA[<br>Source: Wikipedia article <a href="http://en.wikipedia.org/wiki/Bridge_Creek_Wilderness">Bridge Creek Wilderness</a>]]></description>
		</Placemark>
		<Placemark>
			<name><![CDATA[Bridger Wilderness]]></name>
			<Point>
				<coordinates>-109.674166666667,43.1719444444444,0</coordinates>
			</Point>
			<Snippet></Snippet>
			<description><![CDATA[<br>Source: Wikipedia article <a href="http://en.wikipedia.org/wiki/Bridger_Wilderness">Bridger Wilderness</a>]]></description>
		</Placemark>
		<Placemark>
			<name><![CDATA[Bright Star Wilderness]]></name>
			<Point>
				<coordinates>-118.2428549,35.5063454,0</coordinates>
			</Point>
			<Snippet></Snippet>
			<description><![CDATA[<br>Source: Wikipedia article <a href="http://en.wikipedia.org/wiki/Bright_Star_Wilderness">Bright Star Wilderness</a>]]></description>
		</Placemark>
		<Placemark>
			<name><![CDATA[Bristlecone Wilderness]]></name>
			<Point>
				<coordinates>-114.883333333333,39.4,0</coordinates>
			</Point>
			<Snippet></Snippet>
			<description><![CDATA[<br>Source: Wikipedia article <a href="http://en.wikipedia.org/wiki/Bristlecone_Wilderness">Bristlecone Wilderness</a>]]></description>
		</Placemark>
		<Placemark>
			<name><![CDATA[Bruneau – Jarbidge Rivers Wilderness]]></name>
			<Point>
				<coordinates>-115.625777777778,42.3960555555556,0</coordinates>
			</Point>
			<Snippet></Snippet>
			<description><![CDATA[<br>Source: Wikipedia article <a href="http://en.wikipedia.org/wiki/Bruneau_–_Jarbidge_Rivers_Wilderness">Bruneau – Jarbidge Rivers Wilderness</a>]]></description>
		</Placemark>
		<Placemark>
			<name><![CDATA[Buckhorn Wilderness]]></name>
			<Point>
				<coordinates>-123.133333333333,47.8333333333333,0</coordinates>
			</Point>
			<Snippet></Snippet>
			<description><![CDATA[<br>Source: Wikipedia article <a href="http://en.wikipedia.org/wiki/Buckhorn_Wilderness">Buckhorn Wilderness</a>]]></description>
		</Placemark>
		<Placemark>
			<name><![CDATA[Bucks Lake Wilderness]]></name>
			<Point>
				<coordinates>-121.176111111111,39.9541666666667,0</coordinates>
			</Point>
			<Snippet></Snippet>
			<description><![CDATA[<br>Source: Wikipedia article <a href="http://en.wikipedia.org/wiki/Bucks_Lake_Wilderness">Bucks Lake Wilderness</a>]]></description>
		</Placemark>
		<Placemark>
			<name><![CDATA[Budawang National Park]]></name>
			<Point>
				<coordinates>150.044722222222,-35.42,0</coordinates>
			</Point>
			<Snippet></Snippet>
			<description><![CDATA[<br>Source: Wikipedia article <a href="http://en.wikipedia.org/wiki/Budawang_National_Park">Budawang National Park</a>]]></description>
		</Placemark>
		<Placemark>
			<name><![CDATA[Buffalo Peaks Wilderness]]></name>
			<Point>
				<coordinates>-106.15,39.05,0</coordinates>
			</Point>
			<Snippet></Snippet>
			<description><![CDATA[<br>Source: Wikipedia article <a href="http://en.wikipedia.org/wiki/Buffalo_Peaks_Wilderness">Buffalo Peaks Wilderness</a>]]></description>
		</Placemark>
		<Placemark>
			<name><![CDATA[Bull of the Woods Wilderness]]></name>
			<Point>
				<coordinates>-122.1173,44.8706775,0</coordinates>
			</Point>
			<Snippet></Snippet>
			<description><![CDATA[<br>Source: Wikipedia article <a href="http://en.wikipedia.org/wiki/Bull_of_the_Woods_Wilderness">Bull of the Woods Wilderness</a>]]></description>
		</Placemark>
		<Placemark>
			<name><![CDATA[Burden Falls Wilderness]]></name>
			<Point>
				<coordinates>-88.6419444444444,37.5858333333333,0</coordinates>
			</Point>
			<Snippet></Snippet>
			<description><![CDATA[<br>Source: Wikipedia article <a href="http://en.wikipedia.org/wiki/Burden_Falls_Wilderness">Burden Falls Wilderness</a>]]></description>
		</Placemark>
		<Placemark>
			<name><![CDATA[Byers Peak Wilderness]]></name>
			<Point>
				<coordinates>-105.947222222222,39.8638888888889,0</coordinates>
			</Point>
			<Snippet></Snippet>
			<description><![CDATA[<br>Source: Wikipedia article <a href="http://en.wikipedia.org/wiki/Byers_Peak_Wilderness">Byers Peak Wilderness</a>]]></description>
		</Placemark>
		<Placemark>
			<name><![CDATA[Cabeza Prieta Wilderness]]></name>
			<Point>
				<coordinates>-113.419722222222,32.2680555555556,0</coordinates>
			</Point>
			<Snippet></Snippet>
			<description><![CDATA[<br>Source: Wikipedia article <a href="http://en.wikipedia.org/wiki/Cabeza_Prieta_Wilderness">Cabeza Prieta Wilderness</a>]]></description>
		</Placemark>
		<Placemark>
			<name><![CDATA[Cabinet Mountains Wilderness]]></name>
			<Point>
				<coordinates>-115.683333333333,48.2166666666667,0</coordinates>
			</Point>
			<Snippet></Snippet>
			<description><![CDATA[<br>Source: Wikipedia article <a href="http://en.wikipedia.org/wiki/Cabinet_Mountains_Wilderness">Cabinet Mountains Wilderness</a>]]></description>
		</Placemark>
		<Placemark>
			<name><![CDATA[Cache Creek Wilderness]]></name>
			<Point>
				<coordinates>-122.505555555556,38.9183333333333,0</coordinates>
			</Point>
			<Snippet></Snippet>
			<description><![CDATA[<br>Source: Wikipedia article <a href="http://en.wikipedia.org/wiki/Cache_Creek_Wilderness">Cache Creek Wilderness</a>]]></description>
		</Placemark>
		<Placemark>
			<name><![CDATA[Cache La Poudre Wilderness]]></name>
			<Point>
				<coordinates>-105.45,40.6666666666667,0</coordinates>
			</Point>
			<Snippet></Snippet>
			<description><![CDATA[<br>Source: Wikipedia article <a href="http://en.wikipedia.org/wiki/Cache_La_Poudre_Wilderness">Cache La Poudre Wilderness</a>]]></description>
		</Placemark>
		<Placemark>
			<name><![CDATA[Cache River State Natural Area]]></name>
			<Point>
				<coordinates>-88.9555555555556,37.3622222222222,0</coordinates>
			</Point>
			<Snippet></Snippet>
			<description><![CDATA[<br>Source: Wikipedia article <a href="http://en.wikipedia.org/wiki/Cache_River_State_Natural_Area">Cache River State Natural Area</a>]]></description>
		</Placemark>
		<Placemark>
			<name><![CDATA[Caladesi Island State Park]]></name>
			<Point>
				<coordinates>-82.8211111111111,28.02,0</coordinates>
			</Point>
			<Snippet></Snippet>
			<description><![CDATA[<br>Source: Wikipedia article <a href="http://en.wikipedia.org/wiki/Caladesi_Island_State_Park">Caladesi Island State Park</a>]]></description>
		</Placemark>
		<Placemark>
			<name><![CDATA[Calico Mountains Wilderness]]></name>
			<Point>
				<coordinates>-119.226016666667,41.021565,0</coordinates>
			</Point>
			<Snippet></Snippet>
			<description><![CDATA[<br>Source: Wikipedia article <a href="http://en.wikipedia.org/wiki/Calico_Mountains_Wilderness">Calico Mountains Wilderness</a>]]></description>
		</Placemark>
		<Placemark>
			<name><![CDATA[Camp Helen State Park]]></name>
			<Point>
				<coordinates>-85.9905277777778,30.2756805555556,0</coordinates>
			</Point>
			<Snippet></Snippet>
			<description><![CDATA[<br>Source: Wikipedia article <a href="http://en.wikipedia.org/wiki/Camp_Helen_State_Park">Camp Helen State Park</a>]]></description>
		</Placemark>
		<Placemark>
			<name><![CDATA[Canaan Mountain Wilderness]]></name>
			<Point>
				<coordinates>-112.98315,37.08228,0</coordinates>
			</Point>
			<Snippet></Snippet>
			<description><![CDATA[<br>Source: Wikipedia article <a href="http://en.wikipedia.org/wiki/Canaan_Mountain_Wilderness">Canaan Mountain Wilderness</a>]]></description>
		</Placemark>
		<Placemark>
			<name><![CDATA[Cape Gantheaume Wilderness Protection Area]]></name>
			<Point>
				<coordinates>137.474444444444,-36.0088888888889,0</coordinates>
			</Point>
			<Snippet></Snippet>
			<description><![CDATA[<br>Source: Wikipedia article <a href="http://en.wikipedia.org/wiki/Cape_Gantheaume_Wilderness_Protection_Area">Cape Gantheaume Wilderness Protection Area</a>]]></description>
		</Placemark>
		<Placemark>
			<name><![CDATA[Cape Romain National Wildlife Refuge]]></name>
			<Point>
				<coordinates>-79.5638888888889,32.9925,0</coordinates>
			</Point>
			<Snippet></Snippet>
			<description><![CDATA[<br>Source: Wikipedia article <a href="http://en.wikipedia.org/wiki/Cape_Romain_National_Wildlife_Refuge">Cape Romain National Wildlife Refuge</a>]]></description>
		</Placemark>
		<Placemark>
			<name><![CDATA[Caribou Mountains Wildland Park]]></name>
			<Point>
				<coordinates>-114.966666666667,59.3166666666667,0</coordinates>
			</Point>
			<Snippet></Snippet>
			<description><![CDATA[<br>Source: Wikipedia article <a href="http://en.wikipedia.org/wiki/Caribou_Mountains_Wildland_Park">Caribou Mountains Wildland Park</a>]]></description>
		</Placemark>
		<Placemark>
			<name><![CDATA[Caribou Wilderness]]></name>
			<Point>
				<coordinates>-121.201388888889,40.5008333333333,0</coordinates>
			</Point>
			<Snippet></Snippet>
			<description><![CDATA[<br>Source: Wikipedia article <a href="http://en.wikipedia.org/wiki/Caribou_Wilderness">Caribou Wilderness</a>]]></description>
		</Placemark>
		<Placemark>
			<name><![CDATA[Castle Crags Wilderness]]></name>
			<Point>
				<coordinates>-122.380555555556,41.2,0</coordinates>
			</Point>
			<Snippet></Snippet>
			<description><![CDATA[<br>Source: Wikipedia article <a href="http://en.wikipedia.org/wiki/Castle_Crags_Wilderness">Castle Crags Wilderness</a>]]></description>
		</Placemark>
		<Placemark>
			<name><![CDATA[Cedar Key Museum State Park]]></name>
			<Point>
				<coordinates>-83.0469444444444,29.1530555555556,0</coordinates>
			</Point>
			<Snippet></Snippet>
			<description><![CDATA[<br>Source: Wikipedia article <a href="http://en.wikipedia.org/wiki/Cedar_Key_Museum_State_Park">Cedar Key Museum State Park</a>]]></description>
		</Placemark>
		<Placemark>
			<name><![CDATA[Cedar Keys National Wildlife Refuge]]></name>
			<Point>
				<coordinates>-83.0583333333333,29.1166666666667,0</coordinates>
			</Point>
			<Snippet></Snippet>
			<description><![CDATA[<br>Source: Wikipedia article <a href="http://en.wikipedia.org/wiki/Cedar_Keys_National_Wildlife_Refuge">Cedar Keys National Wildlife Refuge</a>]]></description>
		</Placemark>
		<Placemark>
			<name><![CDATA[Cedar Mountain Wilderness]]></name>
			<Point>
				<coordinates>-112.949742,40.590794,0</coordinates>
			</Point>
			<Snippet></Snippet>
			<description><![CDATA[<br>Source: Wikipedia article <a href="http://en.wikipedia.org/wiki/Cedar_Mountain_Wilderness">Cedar Mountain Wilderness</a>]]></description>
		</Placemark>
		<Placemark>
			<name><![CDATA[Cederberg]]></name>
			<Point>
				<coordinates>19.0833333333333,-32.3333333333333,0</coordinates>
			</Point>
			<Snippet></Snippet>
			<description><![CDATA[<br>Source: Wikipedia article <a href="http://en.wikipedia.org/wiki/Cederberg">Cederberg</a>]]></description>
		</Placemark>
		<Placemark>
			<name><![CDATA[Cederberg]]></name>
			<Point>
				<coordinates>19,-32.5,0</coordinates>
			</Point>
			<Snippet></Snippet>
			<description><![CDATA[<br>Source: Wikipedia article <a href="http://en.wikipedia.org/wiki/Cederberg">Cederberg</a>]]></description>
		</Placemark>
		<Placemark>
			<name><![CDATA[Chama River Canyon Wilderness]]></name>
			<Point>
				<coordinates>-106.6611946,36.3349382303,0</coordinates>
			</Point>
			<Snippet></Snippet>
			<description><![CDATA[<br>Source: Wikipedia article <a href="http://en.wikipedia.org/wiki/Chama_River_Canyon_Wilderness">Chama River Canyon Wilderness</a>]]></description>
		</Placemark>
		<Placemark>
			<name><![CDATA[Chamisso Wilderness]]></name>
			<Point>
				<coordinates>-161.825,66.2244444444444,0</coordinates>
			</Point>
			<Snippet></Snippet>
			<description><![CDATA[<br>Source: Wikipedia article <a href="http://en.wikipedia.org/wiki/Chamisso_Wilderness">Chamisso Wilderness</a>]]></description>
		</Placemark>
		<Placemark>
			<name><![CDATA[Charles C. Deam Wilderness Area]]></name>
			<Point>
				<coordinates>-86.3547222222222,39.0380555555556,0</coordinates>
			</Point>
			<Snippet></Snippet>
			<description><![CDATA[<br>Source: Wikipedia article <a href="http://en.wikipedia.org/wiki/Charles_C._Deam_Wilderness_Area">Charles C. Deam Wilderness Area</a>]]></description>
		</Placemark>
		<Placemark>
			<name><![CDATA[Charon Gardens Wilderness Area]]></name>
			<Point>
				<coordinates>-98.7316666666667,34.7213888888889,0</coordinates>
			</Point>
			<Snippet></Snippet>
			<description><![CDATA[<br>Source: Wikipedia article <a href="http://en.wikipedia.org/wiki/Charon_Gardens_Wilderness_Area">Charon Gardens Wilderness Area</a>]]></description>
		</Placemark>
		<Placemark>
			<name><![CDATA[Chase Lake Wilderness]]></name>
			<Point>
				<coordinates>-99.4452777777778,47.0072222222222,0</coordinates>
			</Point>
			<Snippet></Snippet>
			<description><![CDATA[<br>Source: Wikipedia article <a href="http://en.wikipedia.org/wiki/Chase_Lake_Wilderness">Chase Lake Wilderness</a>]]></description>
		</Placemark>
		<Placemark>
			<name><![CDATA[Chassahowitzka National Wildlife Refuge]]></name>
			<Point>
				<coordinates>-82.6833333333333,28.6833333333333,0</coordinates>
			</Point>
			<Snippet></Snippet>
			<description><![CDATA[<br>Source: Wikipedia article <a href="http://en.wikipedia.org/wiki/Chassahowitzka_National_Wildlife_Refuge">Chassahowitzka National Wildlife Refuge</a>]]></description>
		</Placemark>
		<Placemark>
			<name><![CDATA[Cheaha Wilderness]]></name>
			<Point>
				<coordinates>-85.8272222222222,33.4188888888889,0</coordinates>
			</Point>
			<Snippet></Snippet>
			<description><![CDATA[<br>Source: Wikipedia article <a href="http://en.wikipedia.org/wiki/Cheaha_Wilderness">Cheaha Wilderness</a>]]></description>
		</Placemark>
		<Placemark>
			<name><![CDATA[Chimney Peak Wilderness]]></name>
			<Point>
				<coordinates>-118.085833333333,35.8488888888889,0</coordinates>
			</Point>
			<Snippet></Snippet>
			<description><![CDATA[<br>Source: Wikipedia article <a href="http://en.wikipedia.org/wiki/Chimney_Peak_Wilderness">Chimney Peak Wilderness</a>]]></description>
		</Placemark>
		<Placemark>
			<name><![CDATA[Chinchaga Wildland Park]]></name>
			<Point>
				<coordinates>-119.549722222222,57.1330555555556,0</coordinates>
			</Point>
			<Snippet></Snippet>
			<description><![CDATA[<br>Source: Wikipedia article <a href="http://en.wikipedia.org/wiki/Chinchaga_Wildland_Park">Chinchaga Wildland Park</a>]]></description>
		</Placemark>
		<Placemark>
			<name><![CDATA[Chuck River Wilderness]]></name>
			<Point>
				<coordinates>-133.183333333333,57.4666666666667,0</coordinates>
			</Point>
			<Snippet></Snippet>
			<description><![CDATA[<br>Source: Wikipedia article <a href="http://en.wikipedia.org/wiki/Chuck_River_Wilderness">Chuck River Wilderness</a>]]></description>
		</Placemark>
		<Placemark>
			<name><![CDATA[Chumash Wilderness]]></name>
			<Point>
				<coordinates>-119.166666666667,34.8166666666667,0</coordinates>
			</Point>
			<Snippet></Snippet>
			<description><![CDATA[<br>Source: Wikipedia article <a href="http://en.wikipedia.org/wiki/Chumash_Wilderness">Chumash Wilderness</a>]]></description>
		</Placemark>
		<Placemark>
			<name><![CDATA[Citico Creek Wilderness]]></name>
			<Point>
				<coordinates>-84.0505555555555,35.4047222222222,0</coordinates>
			</Point>
			<Snippet></Snippet>
			<description><![CDATA[<br>Source: Wikipedia article <a href="http://en.wikipedia.org/wiki/Citico_Creek_Wilderness">Citico Creek Wilderness</a>]]></description>
		</Placemark>
		<Placemark>
			<name><![CDATA[Clackamas Wilderness]]></name>
			<Point>
				<coordinates>-121.83,44.9,0</coordinates>
			</Point>
			<Snippet></Snippet>
			<description><![CDATA[<br>Source: Wikipedia article <a href="http://en.wikipedia.org/wiki/Clackamas_Wilderness">Clackamas Wilderness</a>]]></description>
		</Placemark>
		<Placemark>
			<name><![CDATA[Clear Springs Wilderness]]></name>
			<Point>
				<coordinates>-89.4166666666667,37.5833333333333,0</coordinates>
			</Point>
			<Snippet></Snippet>
			<description><![CDATA[<br>Source: Wikipedia article <a href="http://en.wikipedia.org/wiki/Clear_Springs_Wilderness">Clear Springs Wilderness</a>]]></description>
		</Placemark>
		<Placemark>
			<name><![CDATA[Clearwater Wilderness]]></name>
			<Point>
				<coordinates>-121.824166666667,47.0577777777778,0</coordinates>
			</Point>
			<Snippet></Snippet>
			<description><![CDATA[<br>Source: Wikipedia article <a href="http://en.wikipedia.org/wiki/Clearwater_Wilderness">Clearwater Wilderness</a>]]></description>
		</Placemark>
		<Placemark>
			<name><![CDATA[Clifty Wilderness]]></name>
			<Point>
				<coordinates>-83.5638888888889,37.8291666666667,0</coordinates>
			</Point>
			<Snippet></Snippet>
			<description><![CDATA[<br>Source: Wikipedia article <a href="http://en.wikipedia.org/wiki/Clifty_Wilderness">Clifty Wilderness</a>]]></description>
		</Placemark>
		<Placemark>
			<name><![CDATA[Clipper Mountain Wilderness]]></name>
			<Point>
				<coordinates>-115.41759,34.73805,0</coordinates>
			</Point>
			<Snippet></Snippet>
			<description><![CDATA[<br>Source: Wikipedia article <a href="http://en.wikipedia.org/wiki/Clipper_Mountain_Wilderness">Clipper Mountain Wilderness</a>]]></description>
		</Placemark>
		<Placemark>
			<name><![CDATA[Cloud Peak Wilderness]]></name>
			<Point>
				<coordinates>-107.201944444444,44.3986111111111,0</coordinates>
			</Point>
			<Snippet></Snippet>
			<description><![CDATA[<br>Source: Wikipedia article <a href="http://en.wikipedia.org/wiki/Cloud_Peak_Wilderness">Cloud Peak Wilderness</a>]]></description>
		</Placemark>
		<Placemark>
			<name><![CDATA[Clover Mountains Wilderness]]></name>
			<Point>
				<coordinates>-114.3269,37.4047,0</coordinates>
			</Point>
			<Snippet></Snippet>
			<description><![CDATA[<br>Source: Wikipedia article <a href="http://en.wikipedia.org/wiki/Clover_Mountains_Wilderness">Clover Mountains Wilderness</a>]]></description>
		</Placemark>
		<Placemark>
			<name><![CDATA[Cohutta Wilderness]]></name>
			<Point>
				<coordinates>-84.6255555555556,34.8755555555556,0</coordinates>
			</Point>
			<Snippet></Snippet>
			<description><![CDATA[<br>Source: Wikipedia article <a href="http://en.wikipedia.org/wiki/Cohutta_Wilderness">Cohutta Wilderness</a>]]></description>
		</Placemark>
		<Placemark>
			<name><![CDATA[Collegiate Peaks Wilderness]]></name>
			<Point>
				<coordinates>-106.492777777778,38.9694444444444,0</coordinates>
			</Point>
			<Snippet></Snippet>
			<description><![CDATA[<br>Source: Wikipedia article <a href="http://en.wikipedia.org/wiki/Collegiate_Peaks_Wilderness">Collegiate Peaks Wilderness</a>]]></description>
		</Placemark>
		<Placemark>
			<name><![CDATA[Collier-Seminole State Park]]></name>
			<Point>
				<coordinates>-81.6038888888889,25.9761111111111,0</coordinates>
			</Point>
			<Snippet></Snippet>
			<description><![CDATA[<br>Source: Wikipedia article <a href="http://en.wikipedia.org/wiki/Collier-Seminole_State_Park">Collier-Seminole State Park</a>]]></description>
		</Placemark>
		<Placemark>
			<name><![CDATA[Colonel Bob Wilderness]]></name>
			<Point>
				<coordinates>-123.75,47.4,0</coordinates>
			</Point>
			<Snippet></Snippet>
			<description><![CDATA[<br>Source: Wikipedia article <a href="http://en.wikipedia.org/wiki/Colonel_Bob_Wilderness">Colonel Bob Wilderness</a>]]></description>
		</Placemark>
		<Placemark>
			<name><![CDATA[Comanche Peak Wilderness]]></name>
			<Point>
				<coordinates>-105.668611111111,40.5827777777778,0</coordinates>
			</Point>
			<Snippet></Snippet>
			<description><![CDATA[<br>Source: Wikipedia article <a href="http://en.wikipedia.org/wiki/Comanche_Peak_Wilderness">Comanche Peak Wilderness</a>]]></description>
		</Placemark>
		<Placemark>
			<name><![CDATA[Copper Salmon Wilderness]]></name>
			<Point>
				<coordinates>-124.175,42.725,0</coordinates>
			</Point>
			<Snippet></Snippet>
			<description><![CDATA[<br>Source: Wikipedia article <a href="http://en.wikipedia.org/wiki/Copper_Salmon_Wilderness">Copper Salmon Wilderness</a>]]></description>
		</Placemark>
		<Placemark>
			<name><![CDATA[Corkscrew Swamp Sanctuary]]></name>
			<Point>
				<coordinates>-81.538425,26.4178916666667,0</coordinates>
			</Point>
			<Snippet></Snippet>
			<description><![CDATA[<br>Source: Wikipedia article <a href="http://en.wikipedia.org/wiki/Corkscrew_Swamp_Sanctuary">Corkscrew Swamp Sanctuary</a>]]></description>
		</Placemark>
		<Placemark>
			<name><![CDATA[Coronation Island Wilderness]]></name>
			<Point>
				<coordinates>-134.229166666667,55.8661111111111,0</coordinates>
			</Point>
			<Snippet></Snippet>
			<description><![CDATA[<br>Source: Wikipedia article <a href="http://en.wikipedia.org/wiki/Coronation_Island_Wilderness">Coronation Island Wilderness</a>]]></description>
		</Placemark>
		<Placemark>
			<name><![CDATA[Cottonwood Canyon Wilderness]]></name>
			<Point>
				<coordinates>-113.4758,37.2062,0</coordinates>
			</Point>
			<Snippet></Snippet>
			<description><![CDATA[<br>Source: Wikipedia article <a href="http://en.wikipedia.org/wiki/Cottonwood_Canyon_Wilderness">Cottonwood Canyon Wilderness</a>]]></description>
		</Placemark>
		<Placemark>
			<name><![CDATA[Cougar Canyon Wilderness]]></name>
			<Point>
				<coordinates>-114.014880718,37.4865586763,0</coordinates>
			</Point>
			<Snippet></Snippet>
			<description><![CDATA[<br>Source: Wikipedia article <a href="http://en.wikipedia.org/wiki/Cougar_Canyon_Wilderness">Cougar Canyon Wilderness</a>]]></description>
		</Placemark>
		<Placemark>
			<name><![CDATA[Coyote Mountains Wilderness (Arizona)]]></name>
			<Point>
				<coordinates>-111.5207,31.9898,0</coordinates>
			</Point>
			<Snippet></Snippet>
			<description><![CDATA[<br>Source: Wikipedia article <a href="http://en.wikipedia.org/wiki/Coyote_Mountains_Wilderness_(Arizona)">Coyote Mountains Wilderness (Arizona)</a>]]></description>
		</Placemark>
		<Placemark>
			<name><![CDATA[Crab Orchard Wilderness]]></name>
			<Point>
				<coordinates>-89.0880555555556,37.6041666666667,0</coordinates>
			</Point>
			<Snippet></Snippet>
			<description><![CDATA[<br>Source: Wikipedia article <a href="http://en.wikipedia.org/wiki/Crab_Orchard_Wilderness">Crab Orchard Wilderness</a>]]></description>
		</Placemark>
		<Placemark>
			<name><![CDATA[Cranberry Wilderness]]></name>
			<Point>
				<coordinates>-80.3325,38.2766666666667,0</coordinates>
			</Point>
			<Snippet></Snippet>
			<description><![CDATA[<br>Source: Wikipedia article <a href="http://en.wikipedia.org/wiki/Cranberry_Wilderness">Cranberry Wilderness</a>]]></description>
		</Placemark>
		<Placemark>
			<name><![CDATA[Cranberry Wilderness]]></name>
			<Point>
				<coordinates>-80.2383333333333,38.2722222222222,0</coordinates>
			</Point>
			<Snippet></Snippet>
			<description><![CDATA[<br>Source: Wikipedia article <a href="http://en.wikipedia.org/wiki/Cranberry_Wilderness">Cranberry Wilderness</a>]]></description>
		</Placemark>
		<Placemark>
			<name><![CDATA[Cranberry Wilderness]]></name>
			<Point>
				<coordinates>-80.3763888888889,38.3380555555556,0</coordinates>
			</Point>
			<Snippet></Snippet>
			<description><![CDATA[<br>Source: Wikipedia article <a href="http://en.wikipedia.org/wiki/Cranberry_Wilderness">Cranberry Wilderness</a>]]></description>
		</Placemark>
		<Placemark>
			<name><![CDATA[Craters of the Moon National Wilderness]]></name>
			<Point>
				<coordinates>-113.5,43.4,0</coordinates>
			</Point>
			<Snippet></Snippet>
			<description><![CDATA[<br>Source: Wikipedia article <a href="http://en.wikipedia.org/wiki/Craters_of_the_Moon_National_Wilderness">Craters of the Moon National Wilderness</a>]]></description>
		</Placemark>
		<Placemark>
			<name><![CDATA[Crystal River Preserve State Park]]></name>
			<Point>
				<coordinates>-82.6236111111111,28.9163888888889,0</coordinates>
			</Point>
			<Snippet></Snippet>
			<description><![CDATA[<br>Source: Wikipedia article <a href="http://en.wikipedia.org/wiki/Crystal_River_Preserve_State_Park">Crystal River Preserve State Park</a>]]></description>
		</Placemark>
		<Placemark>
			<name><![CDATA[Cucamonga Wilderness]]></name>
			<Point>
				<coordinates>-117.576442,34.2350064,0</coordinates>
			</Point>
			<Snippet></Snippet>
			<description><![CDATA[<br>Source: Wikipedia article <a href="http://en.wikipedia.org/wiki/Cucamonga_Wilderness">Cucamonga Wilderness</a>]]></description>
		</Placemark>
		<Placemark>
			<name><![CDATA[Cummins Creek Wilderness]]></name>
			<Point>
				<coordinates>-124.041944444444,44.2513888888889,0</coordinates>
			</Point>
			<Snippet></Snippet>
			<description><![CDATA[<br>Source: Wikipedia article <a href="http://en.wikipedia.org/wiki/Cummins_Creek_Wilderness">Cummins Creek Wilderness</a>]]></description>
		</Placemark>
		<Placemark>
			<name><![CDATA[Currant Mountain Wilderness]]></name>
			<Point>
				<coordinates>-115.4239177,38.9124356,0</coordinates>
			</Point>
			<Snippet></Snippet>
			<description><![CDATA[<br>Source: Wikipedia article <a href="http://en.wikipedia.org/wiki/Currant_Mountain_Wilderness">Currant Mountain Wilderness</a>]]></description>
		</Placemark>
		<Placemark>
			<name><![CDATA[Dark Canyon Wilderness]]></name>
			<Point>
				<coordinates>-109.897633,37.7763793,0</coordinates>
			</Point>
			<Snippet></Snippet>
			<description><![CDATA[<br>Source: Wikipedia article <a href="http://en.wikipedia.org/wiki/Dark_Canyon_Wilderness">Dark Canyon Wilderness</a>]]></description>
		</Placemark>
		<Placemark>
			<name><![CDATA[Darwin Falls Wilderness]]></name>
			<Point>
				<coordinates>-117.599722222222,36.3433333333333,0</coordinates>
			</Point>
			<Snippet></Snippet>
			<description><![CDATA[<br>Source: Wikipedia article <a href="http://en.wikipedia.org/wiki/Darwin_Falls_Wilderness">Darwin Falls Wilderness</a>]]></description>
		</Placemark>
		<Placemark>
			<name><![CDATA[Dead Lakes State Recreation Area]]></name>
			<Point>
				<coordinates>-85.2011111111111,30.1388888888889,0</coordinates>
			</Point>
			<Snippet></Snippet>
			<description><![CDATA[<br>Source: Wikipedia article <a href="http://en.wikipedia.org/wiki/Dead_Lakes_State_Recreation_Area">Dead Lakes State Recreation Area</a>]]></description>
		</Placemark>
		<Placemark>
			<name><![CDATA[Deep Creek North Wilderness]]></name>
			<Point>
				<coordinates>-112.93288,37.45264,0</coordinates>
			</Point>
			<Snippet></Snippet>
			<description><![CDATA[<br>Source: Wikipedia article <a href="http://en.wikipedia.org/wiki/Deep_Creek_North_Wilderness">Deep Creek North Wilderness</a>]]></description>
		</Placemark>
		<Placemark>
			<name><![CDATA[Deep Creek Wilderness]]></name>
			<Point>
				<coordinates>-112.9357,37.3887,0</coordinates>
			</Point>
			<Snippet></Snippet>
			<description><![CDATA[<br>Source: Wikipedia article <a href="http://en.wikipedia.org/wiki/Deep_Creek_Wilderness">Deep Creek Wilderness</a>]]></description>
		</Placemark>
		<Placemark>
			<name><![CDATA[Deer Lake State Park]]></name>
			<Point>
				<coordinates>-86.0788888888889,30.3038888888889,0</coordinates>
			</Point>
			<Snippet></Snippet>
			<description><![CDATA[<br>Source: Wikipedia article <a href="http://en.wikipedia.org/wiki/Deer_Lake_State_Park">Deer Lake State Park</a>]]></description>
		</Placemark>
		<Placemark>
			<name><![CDATA[Delirium Wilderness]]></name>
			<Point>
				<coordinates>-84.6994444444445,46.3008333333333,0</coordinates>
			</Point>
			<Snippet></Snippet>
			<description><![CDATA[<br>Source: Wikipedia article <a href="http://en.wikipedia.org/wiki/Delirium_Wilderness">Delirium Wilderness</a>]]></description>
		</Placemark>
		<Placemark>
			<name><![CDATA[Deseret Peak Wilderness]]></name>
			<Point>
				<coordinates>-112.733333333333,40.4666666666667,0</coordinates>
			</Point>
			<Snippet></Snippet>
			<description><![CDATA[<br>Source: Wikipedia article <a href="http://en.wikipedia.org/wiki/Deseret_Peak_Wilderness">Deseret Peak Wilderness</a>]]></description>
		</Placemark>
		<Placemark>
			<name><![CDATA[Desolation Wilderness]]></name>
			<Point>
				<coordinates>-120.17,38.9197222222222,0</coordinates>
			</Point>
			<Snippet></Snippet>
			<description><![CDATA[<br>Source: Wikipedia article <a href="http://en.wikipedia.org/wiki/Desolation_Wilderness">Desolation Wilderness</a>]]></description>
		</Placemark>
		<Placemark>
			<name><![CDATA[Detroit River International Wildlife Refuge]]></name>
			<Point>
				<coordinates>-83.1333333333333,42.2166666666667,0</coordinates>
			</Point>
			<Snippet></Snippet>
			<description><![CDATA[<br>Source: Wikipedia article <a href="http://en.wikipedia.org/wiki/Detroit_River_International_Wildlife_Refuge">Detroit River International Wildlife Refuge</a>]]></description>
		</Placemark>
		<Placemark>
			<name><![CDATA[Deua National Park]]></name>
			<Point>
				<coordinates>149.720833333333,-35.9741666666667,0</coordinates>
			</Point>
			<Snippet></Snippet>
			<description><![CDATA[<br>Source: Wikipedia article <a href="http://en.wikipedia.org/wiki/Deua_National_Park">Deua National Park</a>]]></description>
		</Placemark>
		<Placemark>
			<name><![CDATA[Devils Backbone Wilderness]]></name>
			<Point>
				<coordinates>-92.145,36.7341666666667,0</coordinates>
			</Point>
			<Snippet></Snippet>
			<description><![CDATA[<br>Source: Wikipedia article <a href="http://en.wikipedia.org/wiki/Devils_Backbone_Wilderness">Devils Backbone Wilderness</a>]]></description>
		</Placemark>
		<Placemark>
			<name><![CDATA[Diamond Peak Wilderness]]></name>
			<Point>
				<coordinates>-122.15,43.5166666666667,0</coordinates>
			</Point>
			<Snippet></Snippet>
			<description><![CDATA[<br>Source: Wikipedia article <a href="http://en.wikipedia.org/wiki/Diamond_Peak_Wilderness">Diamond Peak Wilderness</a>]]></description>
		</Placemark>
		<Placemark>
			<name><![CDATA[Dick Smith Wilderness]]></name>
			<Point>
				<coordinates>-119.5,34.6666666666667,0</coordinates>
			</Point>
			<Snippet></Snippet>
			<description><![CDATA[<br>Source: Wikipedia article <a href="http://en.wikipedia.org/wiki/Dick_Smith_Wilderness">Dick Smith Wilderness</a>]]></description>
		</Placemark>
		<Placemark>
			<name><![CDATA[Dinkey Lakes Wilderness]]></name>
			<Point>
				<coordinates>-119.036237702,37.1713511427,0</coordinates>
			</Point>
			<Snippet></Snippet>
			<description><![CDATA[<br>Source: Wikipedia article <a href="http://en.wikipedia.org/wiki/Dinkey_Lakes_Wilderness">Dinkey Lakes Wilderness</a>]]></description>
		</Placemark>
		<Placemark>
			<name><![CDATA[Dix Mountain Wilderness Area]]></name>
			<Point>
				<coordinates>-73.7691666666667,44.0605555555556,0</coordinates>
			</Point>
			<Snippet></Snippet>
			<description><![CDATA[<br>Source: Wikipedia article <a href="http://en.wikipedia.org/wiki/Dix_Mountain_Wilderness_Area">Dix Mountain Wilderness Area</a>]]></description>
		</Placemark>
		<Placemark>
			<name><![CDATA[Doc's Pass Wilderness]]></name>
			<Point>
				<coordinates>-114.022473024,37.39433371,0</coordinates>
			</Point>
			<Snippet></Snippet>
			<description><![CDATA[<br>Source: Wikipedia article <a href="http://en.wikipedia.org/wiki/Doc's_Pass_Wilderness">Doc's Pass Wilderness</a>]]></description>
		</Placemark>
		<Placemark>
			<name><![CDATA[Dolly Sods Wilderness]]></name>
			<Point>
				<coordinates>-79.3680555555555,38.9958333333333,0</coordinates>
			</Point>
			<Snippet></Snippet>
			<description><![CDATA[<br>Source: Wikipedia article <a href="http://en.wikipedia.org/wiki/Dolly_Sods_Wilderness">Dolly Sods Wilderness</a>]]></description>
		</Placemark>
		<Placemark>
			<name><![CDATA[Dolly Sods Wilderness]]></name>
			<Point>
				<coordinates>-79.3572222222222,38.9644444444444,0</coordinates>
			</Point>
			<Snippet></Snippet>
			<description><![CDATA[<br>Source: Wikipedia article <a href="http://en.wikipedia.org/wiki/Dolly_Sods_Wilderness">Dolly Sods Wilderness</a>]]></description>
		</Placemark>
		<Placemark>
			<name><![CDATA[Dolly Sods Wilderness]]></name>
			<Point>
				<coordinates>-79.3994444444445,38.9730555555556,0</coordinates>
			</Point>
			<Snippet></Snippet>
			<description><![CDATA[<br>Source: Wikipedia article <a href="http://en.wikipedia.org/wiki/Dolly_Sods_Wilderness">Dolly Sods Wilderness</a>]]></description>
		</Placemark>
		<Placemark>
			<name><![CDATA[Dome Wilderness]]></name>
			<Point>
				<coordinates>-106.3732511,35.7374241057,0</coordinates>
			</Point>
			<Snippet></Snippet>
			<description><![CDATA[<br>Source: Wikipedia article <a href="http://en.wikipedia.org/wiki/Dome_Wilderness">Dome Wilderness</a>]]></description>
		</Placemark>
		<Placemark>
			<name><![CDATA[Domeland Wilderness]]></name>
			<Point>
				<coordinates>-118.209166666667,35.8833333333333,0</coordinates>
			</Point>
			<Snippet></Snippet>
			<description><![CDATA[<br>Source: Wikipedia article <a href="http://en.wikipedia.org/wiki/Domeland_Wilderness">Domeland Wilderness</a>]]></description>
		</Placemark>
		<Placemark>
			<name><![CDATA[Dominguez Canyon Wilderness]]></name>
			<Point>
				<coordinates>-108.416666666667,38.75,0</coordinates>
			</Point>
			<Snippet></Snippet>
			<description><![CDATA[<br>Source: Wikipedia article <a href="http://en.wikipedia.org/wiki/Dominguez_Canyon_Wilderness">Dominguez Canyon Wilderness</a>]]></description>
		</Placemark>
		<Placemark>
			<name><![CDATA[Don Pedro Island State Park]]></name>
			<Point>
				<coordinates>-82.3211111111111,26.8711111111111,0</coordinates>
			</Point>
			<Snippet></Snippet>
			<description><![CDATA[<br>Source: Wikipedia article <a href="http://en.wikipedia.org/wiki/Don_Pedro_Island_State_Park">Don Pedro Island State Park</a>]]></description>
		</Placemark>
		<Placemark>
			<name><![CDATA[Drift Creek Wilderness]]></name>
			<Point>
				<coordinates>-123.928399833333,44.4632,0</coordinates>
			</Point>
			<Snippet></Snippet>
			<description><![CDATA[<br>Source: Wikipedia article <a href="http://en.wikipedia.org/wiki/Drift_Creek_Wilderness">Drift Creek Wilderness</a>]]></description>
		</Placemark>
		<Placemark>
			<name><![CDATA[Dugger Mountain Wilderness]]></name>
			<Point>
				<coordinates>-85.6010716,33.8673239,0</coordinates>
			</Point>
			<Snippet></Snippet>
			<description><![CDATA[<br>Source: Wikipedia article <a href="http://en.wikipedia.org/wiki/Dugger_Mountain_Wilderness">Dugger Mountain Wilderness</a>]]></description>
		</Placemark>
		<Placemark>
			<name><![CDATA[Eagle Cap Wilderness]]></name>
			<Point>
				<coordinates>-117.441666666667,45.2422222222222,0</coordinates>
			</Point>
			<Snippet></Snippet>
			<description><![CDATA[<br>Source: Wikipedia article <a href="http://en.wikipedia.org/wiki/Eagle_Cap_Wilderness">Eagle Cap Wilderness</a>]]></description>
		</Placemark>
		<Placemark>
			<name><![CDATA[Eagles Nest Wilderness]]></name>
			<Point>
				<coordinates>-106.25,39.7,0</coordinates>
			</Point>
			<Snippet></Snippet>
			<description><![CDATA[<br>Source: Wikipedia article <a href="http://en.wikipedia.org/wiki/Eagles_Nest_Wilderness">Eagles Nest Wilderness</a>]]></description>
		</Placemark>
		<Placemark>
			<name><![CDATA[Eagletail Mountains Wilderness]]></name>
			<Point>
				<coordinates>-113.39761,33.4455,0</coordinates>
			</Point>
			<Snippet></Snippet>
			<description><![CDATA[<br>Source: Wikipedia article <a href="http://en.wikipedia.org/wiki/Eagletail_Mountains_Wilderness">Eagletail Mountains Wilderness</a>]]></description>
		</Placemark>
		<Placemark>
			<name><![CDATA[East Cactus Plain Wilderness]]></name>
			<Point>
				<coordinates>-113.9438288,34.0666878,0</coordinates>
			</Point>
			<Snippet></Snippet>
			<description><![CDATA[<br>Source: Wikipedia article <a href="http://en.wikipedia.org/wiki/East_Cactus_Plain_Wilderness">East Cactus Plain Wilderness</a>]]></description>
		</Placemark>
		<Placemark>
			<name><![CDATA[East Fork High Rock Canyon Wilderness]]></name>
			<Point>
				<coordinates>-119.356030555556,41.4321197222222,0</coordinates>
			</Point>
			<Snippet></Snippet>
			<description><![CDATA[<br>Source: Wikipedia article <a href="http://en.wikipedia.org/wiki/East_Fork_High_Rock_Canyon_Wilderness">East Fork High Rock Canyon Wilderness</a>]]></description>
		</Placemark>
		<Placemark>
			<name><![CDATA[East Humboldt Wilderness]]></name>
			<Point>
				<coordinates>-115.116666666667,40.95,0</coordinates>
			</Point>
			<Snippet></Snippet>
			<description><![CDATA[<br>Source: Wikipedia article <a href="http://en.wikipedia.org/wiki/East_Humboldt_Wilderness">East Humboldt Wilderness</a>]]></description>
		</Placemark>
		<Placemark>
			<name><![CDATA[El Paso Mountains Wilderness]]></name>
			<Point>
				<coordinates>-117.833333333333,35.4666666666667,0</coordinates>
			</Point>
			<Snippet></Snippet>
			<description><![CDATA[<br>Source: Wikipedia article <a href="http://en.wikipedia.org/wiki/El_Paso_Mountains_Wilderness">El Paso Mountains Wilderness</a>]]></description>
		</Placemark>
		<Placemark>
			<name><![CDATA[El Toro Wilderness]]></name>
			<Point>
				<coordinates>-65.8288888888889,18.2702777777778,0</coordinates>
			</Point>
			<Snippet></Snippet>
			<description><![CDATA[<br>Source: Wikipedia article <a href="http://en.wikipedia.org/wiki/El_Toro_Wilderness">El Toro Wilderness</a>]]></description>
		</Placemark>
		<Placemark>
			<name><![CDATA[Ellicott Rock Wilderness]]></name>
			<Point>
				<coordinates>-83.0983333333333,34.9991666666667,0</coordinates>
			</Point>
			<Snippet></Snippet>
			<description><![CDATA[<br>Source: Wikipedia article <a href="http://en.wikipedia.org/wiki/Ellicott_Rock_Wilderness">Ellicott Rock Wilderness</a>]]></description>
		</Placemark>
		<Placemark>
			<name><![CDATA[Emeralda Marsh Conservation Area]]></name>
			<Point>
				<coordinates>-81.8038555555556,28.9670722222222,0</coordinates>
			</Point>
			<Snippet></Snippet>
			<description><![CDATA[<br>Source: Wikipedia article <a href="http://en.wikipedia.org/wiki/Emeralda_Marsh_Conservation_Area">Emeralda Marsh Conservation Area</a>]]></description>
		</Placemark>
		<Placemark>
			<name><![CDATA[Emigrant Wilderness]]></name>
			<Point>
				<coordinates>-119.764722222222,38.1852777777778,0</coordinates>
			</Point>
			<Snippet></Snippet>
			<description><![CDATA[<br>Source: Wikipedia article <a href="http://en.wikipedia.org/wiki/Emigrant_Wilderness">Emigrant Wilderness</a>]]></description>
		</Placemark>
		<Placemark>
			<name><![CDATA[Encampment River Wilderness]]></name>
			<Point>
				<coordinates>-106.733333333333,41.0833333333333,0</coordinates>
			</Point>
			<Snippet></Snippet>
			<description><![CDATA[<br>Source: Wikipedia article <a href="http://en.wikipedia.org/wiki/Encampment_River_Wilderness">Encampment River Wilderness</a>]]></description>
		</Placemark>
		<Placemark>
			<name><![CDATA[Endicott River Wilderness]]></name>
			<Point>
				<coordinates>-135.523888888889,58.7744444444444,0</coordinates>
			</Point>
			<Snippet></Snippet>
			<description><![CDATA[<br>Source: Wikipedia article <a href="http://en.wikipedia.org/wiki/Endicott_River_Wilderness">Endicott River Wilderness</a>]]></description>
		</Placemark>
		<Placemark>
			<name><![CDATA[Estero Bay Preserve State Park]]></name>
			<Point>
				<coordinates>-81.8594444444444,26.3969444444444,0</coordinates>
			</Point>
			<Snippet></Snippet>
			<description><![CDATA[<br>Source: Wikipedia article <a href="http://en.wikipedia.org/wiki/Estero_Bay_Preserve_State_Park">Estero Bay Preserve State Park</a>]]></description>
		</Placemark>
		<Placemark>
			<name><![CDATA[Everglades National Park]]></name>
			<Point>
				<coordinates>-80.9333333333333,25.3166666666667,0</coordinates>
			</Point>
			<Snippet></Snippet>
			<description><![CDATA[<br>Source: Wikipedia article <a href="http://en.wikipedia.org/wiki/Everglades_National_Park">Everglades National Park</a>]]></description>
		</Placemark>
		<Placemark>
			<name><![CDATA[Faver-Dykes State Park]]></name>
			<Point>
				<coordinates>-81.2480555555556,29.6761111111111,0</coordinates>
			</Point>
			<Snippet></Snippet>
			<description><![CDATA[<br>Source: Wikipedia article <a href="http://en.wikipedia.org/wiki/Faver-Dykes_State_Park">Faver-Dykes State Park</a>]]></description>
		</Placemark>
		<Placemark>
			<name><![CDATA[Fishhooks Wilderness]]></name>
			<Point>
				<coordinates>-109.978611111111,33.2158333333333,0</coordinates>
			</Point>
			<Snippet></Snippet>
			<description><![CDATA[<br>Source: Wikipedia article <a href="http://en.wikipedia.org/wiki/Fishhooks_Wilderness">Fishhooks Wilderness</a>]]></description>
		</Placemark>
		<Placemark>
			<name><![CDATA[Fitzpatrick Wilderness]]></name>
			<Point>
				<coordinates>-109.633333333333,43.2,0</coordinates>
			</Point>
			<Snippet></Snippet>
			<description><![CDATA[<br>Source: Wikipedia article <a href="http://en.wikipedia.org/wiki/Fitzpatrick_Wilderness">Fitzpatrick Wilderness</a>]]></description>
		</Placemark>
		<Placemark>
			<name><![CDATA[Five Ponds Wilderness Area]]></name>
			<Point>
				<coordinates>-74.93251,44.04457,0</coordinates>
			</Point>
			<Snippet></Snippet>
			<description><![CDATA[<br>Source: Wikipedia article <a href="http://en.wikipedia.org/wiki/Five_Ponds_Wilderness_Area">Five Ponds Wilderness Area</a>]]></description>
		</Placemark>
		<Placemark>
			<name><![CDATA[Flat Tops Wilderness Area]]></name>
			<Point>
				<coordinates>-107.266111111111,39.9488888888889,0</coordinates>
			</Point>
			<Snippet></Snippet>
			<description><![CDATA[<br>Source: Wikipedia article <a href="http://en.wikipedia.org/wiki/Flat_Tops_Wilderness_Area">Flat Tops Wilderness Area</a>]]></description>
		</Placemark>
		<Placemark>
			<name><![CDATA[Florida Caverns State Park]]></name>
			<Point>
				<coordinates>-85.2330555555556,30.8138888888889,0</coordinates>
			</Point>
			<Snippet></Snippet>
			<description><![CDATA[<br>Source: Wikipedia article <a href="http://en.wikipedia.org/wiki/Florida_Caverns_State_Park">Florida Caverns State Park</a>]]></description>
		</Placemark>
		<Placemark>
			<name><![CDATA[Forrester Island Wilderness]]></name>
			<Point>
				<coordinates>-133.526944444444,54.8027777777778,0</coordinates>
			</Point>
			<Snippet></Snippet>
			<description><![CDATA[<br>Source: Wikipedia article <a href="http://en.wikipedia.org/wiki/Forrester_Island_Wilderness">Forrester Island Wilderness</a>]]></description>
		</Placemark>
		<Placemark>
			<name><![CDATA[Fort Clinch State Park]]></name>
			<Point>
				<coordinates>-81.4544611111111,30.7046888888889,0</coordinates>
			</Point>
			<Snippet></Snippet>
			<description><![CDATA[<br>Source: Wikipedia article <a href="http://en.wikipedia.org/wiki/Fort_Clinch_State_Park">Fort Clinch State Park</a>]]></description>
		</Placemark>
		<Placemark>
			<name><![CDATA[Fort George Island Cultural State Park]]></name>
			<Point>
				<coordinates>-81.4319444444445,30.4261111111111,0</coordinates>
			</Point>
			<Snippet></Snippet>
			<description><![CDATA[<br>Source: Wikipedia article <a href="http://en.wikipedia.org/wiki/Fort_George_Island_Cultural_State_Park">Fort George Island Cultural State Park</a>]]></description>
		</Placemark>
		<Placemark>
			<name><![CDATA[Fort Niobrara Wilderness]]></name>
			<Point>
				<coordinates>-100.420277777778,42.9208333333333,0</coordinates>
			</Point>
			<Snippet></Snippet>
			<description><![CDATA[<br>Source: Wikipedia article <a href="http://en.wikipedia.org/wiki/Fort_Niobrara_Wilderness">Fort Niobrara Wilderness</a>]]></description>
		</Placemark>
		<Placemark>
			<name><![CDATA[Fortification Range Wilderness]]></name>
			<Point>
				<coordinates>-114.456,38.56,0</coordinates>
			</Point>
			<Snippet></Snippet>
			<description><![CDATA[<br>Source: Wikipedia article <a href="http://en.wikipedia.org/wiki/Fortification_Range_Wilderness">Fortification Range Wilderness</a>]]></description>
		</Placemark>
		<Placemark>
			<name><![CDATA[Fossil Ridge Wilderness]]></name>
			<Point>
				<coordinates>-106.633333333333,38.6833333333333,0</coordinates>
			</Point>
			<Snippet></Snippet>
			<description><![CDATA[<br>Source: Wikipedia article <a href="http://en.wikipedia.org/wiki/Fossil_Ridge_Wilderness">Fossil Ridge Wilderness</a>]]></description>
		</Placemark>
		<Placemark>
			<name><![CDATA[Fossil Springs Wilderness]]></name>
			<Point>
				<coordinates>-111.543055555556,34.4488888888889,0</coordinates>
			</Point>
			<Snippet></Snippet>
			<description><![CDATA[<br>Source: Wikipedia article <a href="http://en.wikipedia.org/wiki/Fossil_Springs_Wilderness">Fossil Springs Wilderness</a>]]></description>
		</Placemark>
		<Placemark>
			<name><![CDATA[Frank Church—River of No Return Wilderness]]></name>
			<Point>
				<coordinates>-114.954444444444,45.0652777777778,0</coordinates>
			</Point>
			<Snippet></Snippet>
			<description><![CDATA[<br>Source: Wikipedia article <a href="http://en.wikipedia.org/wiki/Frank_Church—River_of_No_Return_Wilderness">Frank Church—River of No Return Wilderness</a>]]></description>
		</Placemark>
		<Placemark>
			<name><![CDATA[Fults Hill Prairie State Natural Area]]></name>
			<Point>
				<coordinates>-89.8005555555555,37.9775,0</coordinates>
			</Point>
			<Snippet></Snippet>
			<description><![CDATA[<br>Source: Wikipedia article <a href="http://en.wikipedia.org/wiki/Fults_Hill_Prairie_State_Natural_Area">Fults Hill Prairie State Natural Area</a>]]></description>
		</Placemark>
		<Placemark>
			<name><![CDATA[Galiuro Wilderness]]></name>
			<Point>
				<coordinates>-110.33,32.5866666666667,0</coordinates>
			</Point>
			<Snippet></Snippet>
			<description><![CDATA[<br>Source: Wikipedia article <a href="http://en.wikipedia.org/wiki/Galiuro_Wilderness">Galiuro Wilderness</a>]]></description>
		</Placemark>
		<Placemark>
			<name><![CDATA[Garcia Wilderness]]></name>
			<Point>
				<coordinates>-120.309722222222,35.2488888888889,0</coordinates>
			</Point>
			<Snippet></Snippet>
			<description><![CDATA[<br>Source: Wikipedia article <a href="http://en.wikipedia.org/wiki/Garcia_Wilderness">Garcia Wilderness</a>]]></description>
		</Placemark>
		<Placemark>
			<name><![CDATA[Garden of the Gods Wilderness]]></name>
			<Point>
				<coordinates>-88.3947222222222,37.6069444444444,0</coordinates>
			</Point>
			<Snippet></Snippet>
			<description><![CDATA[<br>Source: Wikipedia article <a href="http://en.wikipedia.org/wiki/Garden_of_the_Gods_Wilderness">Garden of the Gods Wilderness</a>]]></description>
		</Placemark>
		<Placemark>
			<name><![CDATA[Gasparilla Island State Park]]></name>
			<Point>
				<coordinates>-82.2611111111111,26.7219444444444,0</coordinates>
			</Point>
			<Snippet></Snippet>
			<description><![CDATA[<br>Source: Wikipedia article <a href="http://en.wikipedia.org/wiki/Gasparilla_Island_State_Park">Gasparilla Island State Park</a>]]></description>
		</Placemark>
		<Placemark>
			<name><![CDATA[Gates of the Arctic Wilderness]]></name>
			<Point>
				<coordinates>-153.066666666667,68.1,0</coordinates>
			</Point>
			<Snippet></Snippet>
			<description><![CDATA[<br>Source: Wikipedia article <a href="http://en.wikipedia.org/wiki/Gates_of_the_Arctic_Wilderness">Gates of the Arctic Wilderness</a>]]></description>
		</Placemark>
		<Placemark>
			<name><![CDATA[Gates of the Mountains Wilderness]]></name>
			<Point>
				<coordinates>-111.966666666667,46.8833333333333,0</coordinates>
			</Point>
			<Snippet></Snippet>
			<description><![CDATA[<br>Source: Wikipedia article <a href="http://en.wikipedia.org/wiki/Gates_of_the_Mountains_Wilderness">Gates of the Mountains Wilderness</a>]]></description>
		</Placemark>
		<Placemark>
			<name><![CDATA[Gaylord Nelson Wilderness]]></name>
			<Point>
				<coordinates>-90.664167,46.965278,0</coordinates>
			</Point>
			<Snippet></Snippet>
			<description><![CDATA[<br>Source: Wikipedia article <a href="http://en.wikipedia.org/wiki/Gaylord_Nelson_Wilderness">Gaylord Nelson Wilderness</a>]]></description>
		</Placemark>
		<Placemark>
			<name><![CDATA[Gearhart Mountain Wilderness]]></name>
			<Point>
				<coordinates>-120.862222222222,42.5127777777778,0</coordinates>
			</Point>
			<Snippet></Snippet>
			<description><![CDATA[<br>Source: Wikipedia article <a href="http://en.wikipedia.org/wiki/Gearhart_Mountain_Wilderness">Gearhart Mountain Wilderness</a>]]></description>
		</Placemark>
		<Placemark>
			<name><![CDATA[Gee Creek Wilderness]]></name>
			<Point>
				<coordinates>-84.5077077,35.2609062,0</coordinates>
			</Point>
			<Snippet></Snippet>
			<description><![CDATA[<br>Source: Wikipedia article <a href="http://en.wikipedia.org/wiki/Gee_Creek_Wilderness">Gee Creek Wilderness</a>]]></description>
		</Placemark>
		<Placemark>
			<name><![CDATA[Ghost River Wilderness Area]]></name>
			<Point>
				<coordinates>-115.397148559,51.3532403126,0</coordinates>
			</Point>
			<Snippet></Snippet>
			<description><![CDATA[<br>Source: Wikipedia article <a href="http://en.wikipedia.org/wiki/Ghost_River_Wilderness_Area">Ghost River Wilderness Area</a>]]></description>
		</Placemark>
		<Placemark>
			<name><![CDATA[Giant Mountain Wilderness Area]]></name>
			<Point>
				<coordinates>-73.73508,44.07303,0</coordinates>
			</Point>
			<Snippet></Snippet>
			<description><![CDATA[<br>Source: Wikipedia article <a href="http://en.wikipedia.org/wiki/Giant_Mountain_Wilderness_Area">Giant Mountain Wilderness Area</a>]]></description>
		</Placemark>
		<Placemark>
			<name><![CDATA[Gibraltar Range National Park]]></name>
			<Point>
				<coordinates>152.323888888889,-29.5544444444444,0</coordinates>
			</Point>
			<Snippet></Snippet>
			<description><![CDATA[<br>Source: Wikipedia article <a href="http://en.wikipedia.org/wiki/Gibraltar_Range_National_Park">Gibraltar Range National Park</a>]]></description>
		</Placemark>
		<Placemark>
			<name><![CDATA[Gila Wilderness]]></name>
			<Point>
				<coordinates>-108.280833333333,33.2402777777778,0</coordinates>
			</Point>
			<Snippet></Snippet>
			<description><![CDATA[<br>Source: Wikipedia article <a href="http://en.wikipedia.org/wiki/Gila_Wilderness">Gila Wilderness</a>]]></description>
		</Placemark>
		<Placemark>
			<name><![CDATA[Glacier Bay Wilderness]]></name>
			<Point>
				<coordinates>-136.983333333333,59.0666666666667,0</coordinates>
			</Point>
			<Snippet></Snippet>
			<description><![CDATA[<br>Source: Wikipedia article <a href="http://en.wikipedia.org/wiki/Glacier_Bay_Wilderness">Glacier Bay Wilderness</a>]]></description>
		</Placemark>
		<Placemark>
			<name><![CDATA[Glacier Peak Wilderness]]></name>
			<Point>
				<coordinates>-121.113888888889,48.1125,0</coordinates>
			</Point>
			<Snippet></Snippet>
			<description><![CDATA[<br>Source: Wikipedia article <a href="http://en.wikipedia.org/wiki/Glacier_Peak_Wilderness">Glacier Peak Wilderness</a>]]></description>
		</Placemark>
		<Placemark>
			<name><![CDATA[Glacier View Wilderness]]></name>
			<Point>
				<coordinates>-121.930555555556,46.7977777777778,0</coordinates>
			</Point>
			<Snippet></Snippet>
			<description><![CDATA[<br>Source: Wikipedia article <a href="http://en.wikipedia.org/wiki/Glacier_View_Wilderness">Glacier View Wilderness</a>]]></description>
		</Placemark>
		<Placemark>
			<name><![CDATA[Glastenbury Wilderness]]></name>
			<Point>
				<coordinates>-73.1,42.9666666666667,0</coordinates>
			</Point>
			<Snippet></Snippet>
			<description><![CDATA[<br>Source: Wikipedia article <a href="http://en.wikipedia.org/wiki/Glastenbury_Wilderness">Glastenbury Wilderness</a>]]></description>
		</Placemark>
		<Placemark>
			<name><![CDATA[Goat Rocks Wilderness]]></name>
			<Point>
				<coordinates>-121.453888888889,46.5122222222222,0</coordinates>
			</Point>
			<Snippet></Snippet>
			<description><![CDATA[<br>Source: Wikipedia article <a href="http://en.wikipedia.org/wiki/Goat_Rocks_Wilderness">Goat Rocks Wilderness</a>]]></description>
		</Placemark>
		<Placemark>
			<name><![CDATA[Golden Trout Wilderness]]></name>
			<Point>
				<coordinates>-118.321944444444,36.3,0</coordinates>
			</Point>
			<Snippet></Snippet>
			<description><![CDATA[<br>Source: Wikipedia article <a href="http://en.wikipedia.org/wiki/Golden_Trout_Wilderness">Golden Trout Wilderness</a>]]></description>
		</Placemark>
		<Placemark>
			<name><![CDATA[Gooding City of Rocks East Wilderness Study Area]]></name>
			<Point>
				<coordinates>-114.82922,43.11714,0</coordinates>
			</Point>
			<Snippet></Snippet>
			<description><![CDATA[<br>Source: Wikipedia article <a href="http://en.wikipedia.org/wiki/Gooding_City_of_Rocks_East_Wilderness_Study_Area">Gooding City of Rocks East Wilderness Study Area</a>]]></description>
		</Placemark>
		<Placemark>
			<name><![CDATA[Gooding City of Rocks West Wilderness Study Area]]></name>
			<Point>
				<coordinates>-114.86755,43.12454,0</coordinates>
			</Point>
			<Snippet></Snippet>
			<description><![CDATA[<br>Source: Wikipedia article <a href="http://en.wikipedia.org/wiki/Gooding_City_of_Rocks_West_Wilderness_Study_Area">Gooding City of Rocks West Wilderness Study Area</a>]]></description>
		</Placemark>
		<Placemark>
			<name><![CDATA[Goose Creek Wilderness]]></name>
			<Point>
				<coordinates>-112.9957,37.372,0</coordinates>
			</Point>
			<Snippet></Snippet>
			<description><![CDATA[<br>Source: Wikipedia article <a href="http://en.wikipedia.org/wiki/Goose_Creek_Wilderness">Goose Creek Wilderness</a>]]></description>
		</Placemark>
		<Placemark>
			<name><![CDATA[Goose Lake Prairie State Natural Area]]></name>
			<Point>
				<coordinates>-88.2972222222222,41.3675,0</coordinates>
			</Point>
			<Snippet></Snippet>
			<description><![CDATA[<br>Source: Wikipedia article <a href="http://en.wikipedia.org/wiki/Goose_Lake_Prairie_State_Natural_Area">Goose Lake Prairie State Natural Area</a>]]></description>
		</Placemark>
		<Placemark>
			<name><![CDATA[Goshute Canyon Wilderness]]></name>
			<Point>
				<coordinates>-114.863333333333,40.0225,0</coordinates>
			</Point>
			<Snippet></Snippet>
			<description><![CDATA[<br>Source: Wikipedia article <a href="http://en.wikipedia.org/wiki/Goshute_Canyon_Wilderness">Goshute Canyon Wilderness</a>]]></description>
		</Placemark>
		<Placemark>
			<name><![CDATA[Gospel Hump Wilderness]]></name>
			<Point>
				<coordinates>-115.775555555556,45.5658333333333,0</coordinates>
			</Point>
			<Snippet></Snippet>
			<description><![CDATA[<br>Source: Wikipedia article <a href="http://en.wikipedia.org/wiki/Gospel_Hump_Wilderness">Gospel Hump Wilderness</a>]]></description>
		</Placemark>
		<Placemark>
			<name><![CDATA[Government Peak Wilderness]]></name>
			<Point>
				<coordinates>-114.167585757,39.5042357934,0</coordinates>
			</Point>
			<Snippet></Snippet>
			<description><![CDATA[<br>Source: Wikipedia article <a href="http://en.wikipedia.org/wiki/Government_Peak_Wilderness">Government Peak Wilderness</a>]]></description>
		</Placemark>
		<Placemark>
			<name><![CDATA[Granite Chief Wilderness]]></name>
			<Point>
				<coordinates>-120.295833333333,39.1494444444444,0</coordinates>
			</Point>
			<Snippet></Snippet>
			<description><![CDATA[<br>Source: Wikipedia article <a href="http://en.wikipedia.org/wiki/Granite_Chief_Wilderness">Granite Chief Wilderness</a>]]></description>
		</Placemark>
		<Placemark>
			<name><![CDATA[Grant Range Wilderness]]></name>
			<Point>
				<coordinates>-115.5030826,38.2521673,0</coordinates>
			</Point>
			<Snippet></Snippet>
			<description><![CDATA[<br>Source: Wikipedia article <a href="http://en.wikipedia.org/wiki/Grant_Range_Wilderness">Grant Range Wilderness</a>]]></description>
		</Placemark>
		<Placemark>
			<name><![CDATA[Grassy Knob Wilderness]]></name>
			<Point>
				<coordinates>-124.326666666667,42.7408333333333,0</coordinates>
			</Point>
			<Snippet></Snippet>
			<description><![CDATA[<br>Source: Wikipedia article <a href="http://en.wikipedia.org/wiki/Grassy_Knob_Wilderness">Grassy Knob Wilderness</a>]]></description>
		</Placemark>
		<Placemark>
			<name><![CDATA[Green Bay National Wildlife Refuge]]></name>
			<Point>
				<coordinates>-86.95,45.3166666666667,0</coordinates>
			</Point>
			<Snippet></Snippet>
			<description><![CDATA[<br>Source: Wikipedia article <a href="http://en.wikipedia.org/wiki/Green_Bay_National_Wildlife_Refuge">Green Bay National Wildlife Refuge</a>]]></description>
		</Placemark>
		<Placemark>
			<name><![CDATA[Greenhorn Mountain Wilderness]]></name>
			<Point>
				<coordinates>-105.016666666667,37.85,0</coordinates>
			</Point>
			<Snippet></Snippet>
			<description><![CDATA[<br>Source: Wikipedia article <a href="http://en.wikipedia.org/wiki/Greenhorn_Mountain_Wilderness">Greenhorn Mountain Wilderness</a>]]></description>
		</Placemark>
		<Placemark>
			<name><![CDATA[Gros Ventre Wilderness]]></name>
			<Point>
				<coordinates>-110.408888888889,43.4708333333333,0</coordinates>
			</Point>
			<Snippet></Snippet>
			<description><![CDATA[<br>Source: Wikipedia article <a href="http://en.wikipedia.org/wiki/Gros_Ventre_Wilderness">Gros Ventre Wilderness</a>]]></description>
		</Placemark>
		<Placemark>
			<name><![CDATA[Gunnison Gorge Wilderness]]></name>
			<Point>
				<coordinates>-107.833333333333,37.6666666666667,0</coordinates>
			</Point>
			<Snippet></Snippet>
			<description><![CDATA[<br>Source: Wikipedia article <a href="http://en.wikipedia.org/wiki/Gunnison_Gorge_Wilderness">Gunnison Gorge Wilderness</a>]]></description>
		</Placemark>
		<Placemark>
			<name><![CDATA[Guy Fawkes River National Park]]></name>
			<Point>
				<coordinates>152.233333333333,-29.9630555555556,0</coordinates>
			</Point>
			<Snippet></Snippet>
			<description><![CDATA[<br>Source: Wikipedia article <a href="http://en.wikipedia.org/wiki/Guy_Fawkes_River_National_Park">Guy Fawkes River National Park</a>]]></description>
		</Placemark>
		<Placemark>
			<name><![CDATA[Ha-De-Ron-Dah Wilderness Area]]></name>
			<Point>
				<coordinates>-75.07864,43.72306,0</coordinates>
			</Point>
			<Snippet></Snippet>
			<description><![CDATA[<br>Source: Wikipedia article <a href="http://en.wikipedia.org/wiki/Ha-De-Ron-Dah_Wilderness_Area">Ha-De-Ron-Dah Wilderness Area</a>]]></description>
		</Placemark>
		<Placemark>
			<name><![CDATA[Haleakala Wilderness]]></name>
			<Point>
				<coordinates>-156.168888888889,20.7155555555556,0</coordinates>
			</Point>
			<Snippet></Snippet>
			<description><![CDATA[<br>Source: Wikipedia article <a href="http://en.wikipedia.org/wiki/Haleakala_Wilderness">Haleakala Wilderness</a>]]></description>
		</Placemark>
		<Placemark>
			<name><![CDATA[Harbor Island National Wildlife Refuge]]></name>
			<Point>
				<coordinates>-83.7561111111111,46.0544444444444,0</coordinates>
			</Point>
			<Snippet></Snippet>
			<description><![CDATA[<br>Source: Wikipedia article <a href="http://en.wikipedia.org/wiki/Harbor_Island_National_Wildlife_Refuge">Harbor Island National Wildlife Refuge</a>]]></description>
		</Placemark>
		<Placemark>
			<name><![CDATA[Harry "Babe" Woodyard State Natural Area]]></name>
			<Point>
				<coordinates>-87.5736111111111,39.9638888888889,0</coordinates>
			</Point>
			<Snippet></Snippet>
			<description><![CDATA[<br>Source: Wikipedia article <a href="http://en.wikipedia.org/wiki/Harry_"Babe"_Woodyard_State_Natural_Area">Harry "Babe" Woodyard State Natural Area</a>]]></description>
		</Placemark>
		<Placemark>
			<name><![CDATA[Harry Gibbons Migratory Bird Sanctuary]]></name>
			<Point>
				<coordinates>-85.8152777777778,63.8227777777778,0</coordinates>
			</Point>
			<Snippet></Snippet>
			<description><![CDATA[<br>Source: Wikipedia article <a href="http://en.wikipedia.org/wiki/Harry_Gibbons_Migratory_Bird_Sanctuary">Harry Gibbons Migratory Bird Sanctuary</a>]]></description>
		</Placemark>
		<Placemark>
			<name><![CDATA[Hassayampa River Canyon Wilderness]]></name>
			<Point>
				<coordinates>-112.596111111111,34.1102777777778,0</coordinates>
			</Point>
			<Snippet></Snippet>
			<description><![CDATA[<br>Source: Wikipedia article <a href="http://en.wikipedia.org/wiki/Hassayampa_River_Canyon_Wilderness">Hassayampa River Canyon Wilderness</a>]]></description>
		</Placemark>
		<Placemark>
			<name><![CDATA[Hat Head National Park]]></name>
			<Point>
				<coordinates>153.030277777778,-31.0802777777778,0</coordinates>
			</Point>
			<Snippet></Snippet>
			<description><![CDATA[<br>Source: Wikipedia article <a href="http://en.wikipedia.org/wiki/Hat_Head_National_Park">Hat Head National Park</a>]]></description>
		</Placemark>
		<Placemark>
			<name><![CDATA[Havasu Wilderness]]></name>
			<Point>
				<coordinates>-114.415,34.6494444444444,0</coordinates>
			</Point>
			<Snippet></Snippet>
			<description><![CDATA[<br>Source: Wikipedia article <a href="http://en.wikipedia.org/wiki/Havasu_Wilderness">Havasu Wilderness</a>]]></description>
		</Placemark>
		<Placemark>
			<name><![CDATA[Hawaii Volcanoes Wilderness]]></name>
			<Point>
				<coordinates>-155.32,19.2611111111111,0</coordinates>
			</Point>
			<Snippet></Snippet>
			<description><![CDATA[<br>Source: Wikipedia article <a href="http://en.wikipedia.org/wiki/Hawaii_Volcanoes_Wilderness">Hawaii Volcanoes Wilderness</a>]]></description>
		</Placemark>
		<Placemark>
			<name><![CDATA[Hazy Islands Wilderness]]></name>
			<Point>
				<coordinates>-134.583333333333,55.8833333333333,0</coordinates>
			</Point>
			<Snippet></Snippet>
			<description><![CDATA[<br>Source: Wikipedia article <a href="http://en.wikipedia.org/wiki/Hazy_Islands_Wilderness">Hazy Islands Wilderness</a>]]></description>
		</Placemark>
		<Placemark>
			<name><![CDATA[Headwaters Wilderness]]></name>
			<Point>
				<coordinates>-88.9506778,45.8141258,0</coordinates>
			</Point>
			<Snippet></Snippet>
			<description><![CDATA[<br>Source: Wikipedia article <a href="http://en.wikipedia.org/wiki/Headwaters_Wilderness">Headwaters Wilderness</a>]]></description>
		</Placemark>
		<Placemark>
			<name><![CDATA[Hell Hole Swamp]]></name>
			<Point>
				<coordinates>-79.7033333333333,33.2277777777778,0</coordinates>
			</Point>
			<Snippet></Snippet>
			<description><![CDATA[<br>Source: Wikipedia article <a href="http://en.wikipedia.org/wiki/Hell_Hole_Swamp">Hell Hole Swamp</a>]]></description>
		</Placemark>
		<Placemark>
			<name><![CDATA[Hells Canyon Wilderness (Arizona)]]></name>
			<Point>
				<coordinates>-112.385326358,33.94474316,0</coordinates>
			</Point>
			<Snippet></Snippet>
			<description><![CDATA[<br>Source: Wikipedia article <a href="http://en.wikipedia.org/wiki/Hells_Canyon_Wilderness_(Arizona)">Hells Canyon Wilderness (Arizona)</a>]]></description>
		</Placemark>
		<Placemark>
			<name><![CDATA[Hells Canyon Wilderness (Oregon and Idaho)]]></name>
			<Point>
				<coordinates>-116.5012521,45.5498848,0</coordinates>
			</Point>
			<Snippet></Snippet>
			<description><![CDATA[<br>Source: Wikipedia article <a href="http://en.wikipedia.org/wiki/Hells_Canyon_Wilderness_(Oregon_and_Idaho)">Hells Canyon Wilderness (Oregon and Idaho)</a>]]></description>
		</Placemark>
		<Placemark>
			<name><![CDATA[Hellsgate Wilderness]]></name>
			<Point>
				<coordinates>-111.1287414,34.1914275,0</coordinates>
			</Point>
			<Snippet></Snippet>
			<description><![CDATA[<br>Source: Wikipedia article <a href="http://en.wikipedia.org/wiki/Hellsgate_Wilderness">Hellsgate Wilderness</a>]]></description>
		</Placemark>
		<Placemark>
			<name><![CDATA[Henry M. Jackson Wilderness]]></name>
			<Point>
				<coordinates>-121.341666666667,47.9713888888889,0</coordinates>
			</Point>
			<Snippet></Snippet>
			<description><![CDATA[<br>Source: Wikipedia article <a href="http://en.wikipedia.org/wiki/Henry_M._Jackson_Wilderness">Henry M. Jackson Wilderness</a>]]></description>
		</Placemark>
		<Placemark>
			<name><![CDATA[Henry W. Coe State Park]]></name>
			<Point>
				<coordinates>-121.545,37.1883333333333,0</coordinates>
			</Point>
			<Snippet></Snippet>
			<description><![CDATA[<br>Source: Wikipedia article <a href="http://en.wikipedia.org/wiki/Henry_W._Coe_State_Park">Henry W. Coe State Park</a>]]></description>
		</Placemark>
		<Placemark>
			<name><![CDATA[Henry W. Coe State Park]]></name>
			<Point>
				<coordinates>-121.392777777778,37.2213888888889,0</coordinates>
			</Point>
			<Snippet></Snippet>
			<description><![CDATA[<br>Source: Wikipedia article <a href="http://en.wikipedia.org/wiki/Henry_W._Coe_State_Park">Henry W. Coe State Park</a>]]></description>
		</Placemark>
		<Placemark>
			<name><![CDATA[Hercules Glades Wilderness]]></name>
			<Point>
				<coordinates>-92.9333333333333,36.6666666666667,0</coordinates>
			</Point>
			<Snippet></Snippet>
			<description><![CDATA[<br>Source: Wikipedia article <a href="http://en.wikipedia.org/wiki/Hercules_Glades_Wilderness">Hercules Glades Wilderness</a>]]></description>
		</Placemark>
		<Placemark>
			<name><![CDATA[Hickory Creek Wilderness]]></name>
			<Point>
				<coordinates>-79.2913888888889,41.6747222222222,0</coordinates>
			</Point>
			<Snippet></Snippet>
			<description><![CDATA[<br>Source: Wikipedia article <a href="http://en.wikipedia.org/wiki/Hickory_Creek_Wilderness">Hickory Creek Wilderness</a>]]></description>
		</Placemark>
		<Placemark>
			<name><![CDATA[Hidaka-sanmyaku Erimo Quasi-National Park]]></name>
			<Point>
				<coordinates>142.951666666667,42.3886111111111,0</coordinates>
			</Point>
			<Snippet></Snippet>
			<description><![CDATA[<br>Source: Wikipedia article <a href="http://en.wikipedia.org/wiki/Hidaka-sanmyaku_Erimo_Quasi-National_Park">Hidaka-sanmyaku Erimo Quasi-National Park</a>]]></description>
		</Placemark>
		<Placemark>
			<name><![CDATA[High Peaks Wilderness Area]]></name>
			<Point>
				<coordinates>-74.0269,44.19028,0</coordinates>
			</Point>
			<Snippet></Snippet>
			<description><![CDATA[<br>Source: Wikipedia article <a href="http://en.wikipedia.org/wiki/High_Peaks_Wilderness_Area">High Peaks Wilderness Area</a>]]></description>
		</Placemark>
		<Placemark>
			<name><![CDATA[High Rock Canyon Wilderness]]></name>
			<Point>
				<coordinates>-119.454920833333,41.38573,0</coordinates>
			</Point>
			<Snippet></Snippet>
			<description><![CDATA[<br>Source: Wikipedia article <a href="http://en.wikipedia.org/wiki/High_Rock_Canyon_Wilderness">High Rock Canyon Wilderness</a>]]></description>
		</Placemark>
		<Placemark>
			<name><![CDATA[High Rock Lake Wilderness]]></name>
			<Point>
				<coordinates>-119.222129166667,41.2148969444444,0</coordinates>
			</Point>
			<Snippet></Snippet>
			<description><![CDATA[<br>Source: Wikipedia article <a href="http://en.wikipedia.org/wiki/High_Rock_Lake_Wilderness">High Rock Lake Wilderness</a>]]></description>
		</Placemark>
		<Placemark>
			<name><![CDATA[High Schells Wilderness]]></name>
			<Point>
				<coordinates>-114.599215912,39.3399041581,0</coordinates>
			</Point>
			<Snippet></Snippet>
			<description><![CDATA[<br>Source: Wikipedia article <a href="http://en.wikipedia.org/wiki/High_Schells_Wilderness">High Schells Wilderness</a>]]></description>
		</Placemark>
		<Placemark>
			<name><![CDATA[High Uintas Wilderness]]></name>
			<Point>
				<coordinates>-110.4968294,40.7382776,0</coordinates>
			</Point>
			<Snippet></Snippet>
			<description><![CDATA[<br>Source: Wikipedia article <a href="http://en.wikipedia.org/wiki/High_Uintas_Wilderness">High Uintas Wilderness</a>]]></description>
		</Placemark>
		<Placemark>
			<name><![CDATA[Highland Ridge Wilderness]]></name>
			<Point>
				<coordinates>-114.241679697,38.7743622866,0</coordinates>
			</Point>
			<Snippet></Snippet>
			<description><![CDATA[<br>Source: Wikipedia article <a href="http://en.wikipedia.org/wiki/Highland_Ridge_Wilderness">Highland Ridge Wilderness</a>]]></description>
		</Placemark>
		<Placemark>
			<name><![CDATA[Hoffman Notch Wilderness Area]]></name>
			<Point>
				<coordinates>-73.83551,43.90071,0</coordinates>
			</Point>
			<Snippet></Snippet>
			<description><![CDATA[<br>Source: Wikipedia article <a href="http://en.wikipedia.org/wiki/Hoffman_Notch_Wilderness_Area">Hoffman Notch Wilderness Area</a>]]></description>
		</Placemark>
		<Placemark>
			<name><![CDATA[Holy Cross Wilderness]]></name>
			<Point>
				<coordinates>-106.481666666667,39.4669444444444,0</coordinates>
			</Point>
			<Snippet></Snippet>
			<description><![CDATA[<br>Source: Wikipedia article <a href="http://en.wikipedia.org/wiki/Holy_Cross_Wilderness">Holy Cross Wilderness</a>]]></description>
		</Placemark>
		<Placemark>
			<name><![CDATA[Homosassa Springs Wildlife State Park]]></name>
			<Point>
				<coordinates>-82.5880555555556,28.8,0</coordinates>
			</Point>
			<Snippet></Snippet>
			<description><![CDATA[<br>Source: Wikipedia article <a href="http://en.wikipedia.org/wiki/Homosassa_Springs_Wildlife_State_Park">Homosassa Springs Wildlife State Park</a>]]></description>
		</Placemark>
		<Placemark>
			<name><![CDATA[Hontoon Island State Park]]></name>
			<Point>
				<coordinates>-81.3630555555555,28.9669444444444,0</coordinates>
			</Point>
			<Snippet></Snippet>
			<description><![CDATA[<br>Source: Wikipedia article <a href="http://en.wikipedia.org/wiki/Hontoon_Island_State_Park">Hontoon Island State Park</a>]]></description>
		</Placemark>
		<Placemark>
			<name><![CDATA[Hoover Wilderness]]></name>
			<Point>
				<coordinates>-119.376944444444,38.1130555555556,0</coordinates>
			</Point>
			<Snippet></Snippet>
			<description><![CDATA[<br>Source: Wikipedia article <a href="http://en.wikipedia.org/wiki/Hoover_Wilderness">Hoover Wilderness</a>]]></description>
		</Placemark>
		<Placemark>
			<name><![CDATA[Twenty Lakes Basin]]></name>
			<Point>
				<coordinates>-119.3,37.9833333333333,0</coordinates>
			</Point>
			<Snippet></Snippet>
			<description><![CDATA[<br>Source: Wikipedia article <a href="http://en.wikipedia.org/wiki/Hoover_Wilderness">Hoover Wilderness</a>]]></description>
		</Placemark>
		<Placemark>
			<name><![CDATA[Virginia Lakes Basin]]></name>
			<Point>
				<coordinates>-119.275,38.05,0</coordinates>
			</Point>
			<Snippet></Snippet>
			<description><![CDATA[<br>Source: Wikipedia article <a href="http://en.wikipedia.org/wiki/Hoover_Wilderness">Hoover Wilderness</a>]]></description>
		</Placemark>